[
  {
    "schoolId": "SCH-s-j-b-saint-john-bosco-i-a-s-inc-409744",
    "schoolName": "(S.J.B.) SAINT JOHN BOSCO, I.A.S., INC.",
    "normalizedSchoolName": "SJB SAINT JOHN BOSCO IAS INC",
    "municipality": "Laguna",
    "province": "Laguna",
    "latitude": 14.566165,
    "longitude": 121.0657473,
    "schoolType": "Grade 11-12",
    "source": "Master Directory 2026",
    "isActive": true
  },
  {
    "schoolId": "SCH-abe-international-business-college-cainta-402239",
    "schoolName": "ABE International Business College-Cainta",
    "normalizedSchoolName": "ABE INTERNATIONAL BUSINESS COLLEGECAINTA",
    "municipality": "Cainta",
    "province": "Rizal",
    "latitude": 14.578,
    "longitude": 121.122,
    "schoolType": "Grade 11-12",
    "source": "Master Directory 2026",
    "isActive": true
  },
  {
    "schoolId": "SCH-abe-international-business-college-quezon-402199",
    "schoolName": "ABE International Business College-Quezon",
    "normalizedSchoolName": "ABE INTERNATIONAL BUSINESS COLLEGEQUEZON",
    "municipality": "City of Lucena",
    "province": "Quezon",
    "latitude": 13.941,
    "longitude": 121.623,
    "schoolType": "Grade 11-12",
    "source": "Master Directory 2026",
    "isActive": true
  },
  {
    "schoolId": "SCH-acacia-school-foundation-inc-402318",
    "schoolName": "Acacia School Foundation, Inc.",
    "normalizedSchoolName": "ACACIA SCHOOL FOUNDATION INC",
    "municipality": "Santa Rosa City",
    "province": "Laguna",
    "latitude": 14.2333999,
    "longitude": 121.082419,
    "schoolType": "Grade 11-12",
    "source": "Master Directory 2026",
    "isActive": true
  },
  {
    "schoolId": "SCH-aceba-science-and-tech-institute-asti-inc-407419",
    "schoolName": "Aceba Science & Tech. Institute (ASTI) Inc.",
    "normalizedSchoolName": "ACEBA SCIENCE TECH INSTITUTE ASTI INC",
    "municipality": "Mauban",
    "province": "Quezon",
    "latitude": 14.1903648,
    "longitude": 121.7324626,
    "schoolType": "Grade 11-12",
    "source": "Master Directory 2026",
    "isActive": true
  },
  {
    "schoolId": "SCH-aceba-science-and-technology-institute-ast-409096",
    "schoolName": "ACEBA Science and Technology Institute (ASTI) Inc.",
    "normalizedSchoolName": "ACEBA SCIENCE AND TECHNOLOGY INSTITUTE ASTI INC",
    "municipality": "Laguna",
    "province": "Laguna",
    "latitude": 14.0265048,
    "longitude": 121.5920043,
    "schoolType": "Grade 11-12",
    "source": "Master Directory 2026",
    "isActive": true
  },
  {
    "schoolId": "SCH-aceba-science-and-technology-institute-inc-410043",
    "schoolName": "ACEBA SCIENCE AND TECHNOLOGY INSTITUTE INC.",
    "normalizedSchoolName": "ACEBA SCIENCE AND TECHNOLOGY INSTITUTE INC",
    "municipality": "Laguna",
    "province": "Laguna",
    "latitude": 14.0265048,
    "longitude": 121.5920043,
    "schoolType": "Grade 11-12",
    "source": "Master Directory 2026",
    "isActive": true
  },
  {
    "schoolId": "SCH-aceba-science-and-technology-institute-inc-408775",
    "schoolName": "ACEBA SCIENCE AND TECHNOLOGY INSTITUTE, INC.",
    "normalizedSchoolName": "ACEBA SCIENCE AND TECHNOLOGY INSTITUTE INC",
    "municipality": "Laguna",
    "province": "Laguna",
    "latitude": 14.0265048,
    "longitude": 121.5920043,
    "schoolType": "Grade 11-12",
    "source": "Master Directory 2026",
    "isActive": true
  },
  {
    "schoolId": "SCH-aceba-systems-technology-institute-inc-407642",
    "schoolName": "ACEBA Systems Technology Institute Inc.",
    "normalizedSchoolName": "ACEBA SYSTEMS TECHNOLOGY INSTITUTE INC",
    "municipality": "Laguna",
    "province": "Laguna",
    "latitude": 12.879721,
    "longitude": 121.774017,
    "schoolType": "Grade 11-12",
    "source": "Master Directory 2026",
    "isActive": true
  },
  {
    "schoolId": "SCH-aceba-systems-technology-institute-inc-408756",
    "schoolName": "ACEBA SYSTEMS TECHNOLOGY INSTITUTE INC.",
    "normalizedSchoolName": "ACEBA SYSTEMS TECHNOLOGY INSTITUTE INC",
    "municipality": "Laguna",
    "province": "Laguna",
    "latitude": 13.527372,
    "longitude": 122.4034238,
    "schoolType": "Grade 11-12",
    "source": "Master Directory 2026",
    "isActive": true
  },
  {
    "schoolId": "SCH-aceba-systems-technology-institute-inc-408758",
    "schoolName": "ACEBA SYSTEMS TECHNOLOGY INSTITUTE INC.",
    "normalizedSchoolName": "ACEBA SYSTEMS TECHNOLOGY INSTITUTE INC",
    "municipality": "Laguna",
    "province": "Laguna",
    "latitude": 13.527372,
    "longitude": 122.4034238,
    "schoolType": "Grade 11-12",
    "source": "Master Directory 2026",
    "isActive": true
  },
  {
    "schoolId": "SCH-aceba-systems-technology-institute-inc-408759",
    "schoolName": "ACEBA SYSTEMS TECHNOLOGY INSTITUTE INC.",
    "normalizedSchoolName": "ACEBA SYSTEMS TECHNOLOGY INSTITUTE INC",
    "municipality": "Laguna",
    "province": "Rizal",
    "latitude": 13.527372,
    "longitude": 122.4034238,
    "schoolType": "Grade 11-12",
    "source": "Master Directory 2026",
    "isActive": true
  },
  {
    "schoolId": "SCH-aceba-systems-technology-institute-inc-408764",
    "schoolName": "ACEBA SYSTEMS TECHNOLOGY INSTITUTE INC.",
    "normalizedSchoolName": "ACEBA SYSTEMS TECHNOLOGY INSTITUTE INC",
    "municipality": "Laguna",
    "province": "Laguna",
    "latitude": 13.527372,
    "longitude": 122.4034238,
    "schoolType": "Grade 11-12",
    "source": "Master Directory 2026",
    "isActive": true
  },
  {
    "schoolId": "SCH-aclc-college-of-taytay-402242",
    "schoolName": "ACLC College of Taytay",
    "normalizedSchoolName": "ACLC COLLEGE OF TAYTAY",
    "municipality": "Taytay",
    "province": "Rizal",
    "latitude": 14.569,
    "longitude": 121.132,
    "schoolType": "Grade 11-12",
    "source": "Master Directory 2026",
    "isActive": true
  },
  {
    "schoolId": "SCH-acts-computer-college-402138",
    "schoolName": "ACTS Computer College",
    "normalizedSchoolName": "ACTS COMPUTER COLLEGE",
    "municipality": "Santa Cruz",
    "province": "Laguna",
    "latitude": 14.281,
    "longitude": 121.417,
    "schoolType": "Grade 11-12",
    "source": "Master Directory 2026",
    "isActive": true
  },
  {
    "schoolId": "SCH-acts-computer-college-infanta-402215",
    "schoolName": "Acts Computer College-Infanta",
    "normalizedSchoolName": "ACTS COMPUTER COLLEGEINFANTA",
    "municipality": "Infanta",
    "province": "Quezon",
    "latitude": 14.742,
    "longitude": 121.65,
    "schoolType": "Grade 11-12",
    "source": "Master Directory 2026",
    "isActive": true
  },
  {
    "schoolId": "SCH-affordable-private-education-center-inc-ap-405067",
    "schoolName": "AFFORDABLE PRIVATE EDUCATION CENTER, INC. APEC SCHOOLS - DASMARIÑAS",
    "normalizedSchoolName": "AFFORDABLE PRIVATE EDUCATION CENTER INC APEC SCHOOLS DASMARINAS",
    "municipality": "Dasmariñas City",
    "province": "Cavite",
    "latitude": 14.3434129,
    "longitude": 120.9371531,
    "schoolType": "Grade 11-12",
    "source": "Master Directory 2026",
    "isActive": true
  },
  {
    "schoolId": "SCH-agoncillo-senior-high-school-342216",
    "schoolName": "Agoncillo Senior High School",
    "normalizedSchoolName": "AGONCILLO SENIOR HIGH SCHOOL",
    "municipality": "Laguna",
    "province": "Batangas",
    "latitude": 13.934196,
    "longitude": 120.9267112,
    "schoolType": "Grade 11-12",
    "source": "Master Directory 2026",
    "isActive": true
  },
  {
    "schoolId": "SCH-agustinian-school-of-cabuyao-inc-1402460",
    "schoolName": "Agustinian School of Cabuyao, Inc.",
    "normalizedSchoolName": "AGUSTINIAN SCHOOL OF CABUYAO INC",
    "municipality": "Cabuyao City",
    "province": "Laguna",
    "latitude": 14.2548275,
    "longitude": 121.1283502,
    "schoolType": "Grade 11-12",
    "source": "Master Directory 2026",
    "isActive": true
  },
  {
    "schoolId": "SCH-aitech-antipolo-city-institute-of-technolo-406730",
    "schoolName": "AITECH (Antipolo City Institute of Technology)",
    "normalizedSchoolName": "AITECH ANTIPOLO CITY INSTITUTE OF TECHNOLOGY",
    "municipality": "Laguna",
    "province": "Laguna",
    "latitude": 14.6292906,
    "longitude": 121.2251629,
    "schoolType": "Grade 11-12",
    "source": "Master Directory 2026",
    "isActive": true
  },
  {
    "schoolId": "SCH-aitech-antipolo-city-institute-of-technolo-600186",
    "schoolName": "AITECH (Antipolo City Institute of Technology)",
    "normalizedSchoolName": "AITECH ANTIPOLO CITY INSTITUTE OF TECHNOLOGY",
    "municipality": "Laguna",
    "province": "Laguna",
    "latitude": 14.6292906,
    "longitude": 121.2251629,
    "schoolType": "Grade 11-12",
    "source": "Master Directory 2026",
    "isActive": true
  },
  {
    "schoolId": "SCH-alangilan-senior-high-school-342235",
    "schoolName": "Alangilan Senior High School",
    "normalizedSchoolName": "ALANGILAN SENIOR HIGH SCHOOL",
    "municipality": "Laguna",
    "province": "Laguna",
    "latitude": 13.7879204,
    "longitude": 121.0681692,
    "schoolType": "Grade 11-12",
    "source": "Master Directory 2026",
    "isActive": true
  },
  {
    "schoolId": "SCH-alitagtag-college-inc-high-school-departme-407506",
    "schoolName": "Alitagtag College, Inc. (High School Department Pinagkurusan Branch)",
    "normalizedSchoolName": "ALITAGTAG COLLEGE INC HIGH SCHOOL DEPARTMENT PINAGKURUSAN BRANCH",
    "municipality": "Laguna",
    "province": "Batangas",
    "latitude": 13.8660155,
    "longitude": 121.005156,
    "schoolType": "Grade 11-12",
    "source": "Master Directory 2026",
    "isActive": true
  },
  {
    "schoolId": "SCH-alitagtag-senior-high-school-342200",
    "schoolName": "Alitagtag Senior High School",
    "normalizedSchoolName": "ALITAGTAG SENIOR HIGH SCHOOL",
    "municipality": "Laguna",
    "province": "Batangas",
    "latitude": 13.8628493,
    "longitude": 121.0072113,
    "schoolType": "Grade 11-12",
    "source": "Master Directory 2026",
    "isActive": true
  },
  {
    "schoolId": "SCH-alpha-centauri-educational-system-1427521",
    "schoolName": "Alpha Centauri Educational System",
    "normalizedSchoolName": "ALPHA CENTAURI EDUCATIONAL SYSTEM",
    "municipality": "City of Lucena",
    "province": "Quezon",
    "latitude": 13.941,
    "longitude": 121.623,
    "schoolType": "Grade 11-12",
    "source": "Master Directory 2026",
    "isActive": true
  },
  {
    "schoolId": "SCH-ama-college-cavite-410398",
    "schoolName": "AMA College-Cavite",
    "normalizedSchoolName": "AMA COLLEGECAVITE",
    "municipality": "City of General Trias",
    "province": "Cavite",
    "latitude": 14.386,
    "longitude": 120.881,
    "schoolType": "Grade 11-12",
    "source": "Master Directory 2026",
    "isActive": true
  },
  {
    "schoolId": "SCH-ama-computer-college-east-rizal-402019",
    "schoolName": "AMA Computer College-East Rizal",
    "normalizedSchoolName": "AMA COMPUTER COLLEGEEAST RIZAL",
    "municipality": "City of Antipolo",
    "province": "Rizal",
    "latitude": 14.586,
    "longitude": 121.176,
    "schoolType": "Grade 11-12",
    "source": "Master Directory 2026",
    "isActive": true
  },
  {
    "schoolId": "SCH-ama-computer-college-binan-402140",
    "schoolName": "AMA Computer College-Biñan",
    "normalizedSchoolName": "AMA COMPUTER COLLEGEBINAN",
    "municipality": "City of Biñan",
    "province": "Laguna",
    "latitude": 14.342,
    "longitude": 121.08,
    "schoolType": "Grade 11-12",
    "source": "Master Directory 2026",
    "isActive": true
  },
  {
    "schoolId": "SCH-ama-computer-college-calamba-402054",
    "schoolName": "AMA Computer College-Calamba",
    "normalizedSchoolName": "AMA COMPUTER COLLEGECALAMBA",
    "municipality": "City of Calamba",
    "province": "Laguna",
    "latitude": 14.211,
    "longitude": 121.165,
    "schoolType": "Grade 11-12",
    "source": "Master Directory 2026",
    "isActive": true
  },
  {
    "schoolId": "SCH-ama-computer-college-batangas-city-402103",
    "schoolName": "AMA Computer College-Batangas City",
    "normalizedSchoolName": "AMA COMPUTER COLLEGEBATANGAS CITY",
    "municipality": "Batangas City",
    "province": "Batangas",
    "latitude": 13.756,
    "longitude": 121.058,
    "schoolType": "Grade 11-12",
    "source": "Master Directory 2026",
    "isActive": true
  },
  {
    "schoolId": "SCH-ama-computer-college-lipa-city-402187",
    "schoolName": "AMA Computer College-Lipa City",
    "normalizedSchoolName": "AMA COMPUTER COLLEGELIPA CITY",
    "municipality": "City of Lipa",
    "province": "Batangas",
    "latitude": 13.941,
    "longitude": 121.164,
    "schoolType": "Grade 11-12",
    "source": "Master Directory 2026",
    "isActive": true
  },
  {
    "schoolId": "SCH-ama-computer-college-lucena-402200",
    "schoolName": "AMA Computer College-Lucena",
    "normalizedSchoolName": "AMA COMPUTER COLLEGELUCENA",
    "municipality": "City of Lucena",
    "province": "Quezon",
    "latitude": 13.941,
    "longitude": 121.623,
    "schoolType": "Grade 11-12",
    "source": "Master Directory 2026",
    "isActive": true
  },
  {
    "schoolId": "SCH-ama-computer-college-sta-cruz-402147",
    "schoolName": "AMA Computer College-Sta.Cruz",
    "normalizedSchoolName": "AMA COMPUTER COLLEGESTACRUZ",
    "municipality": "Santa Cruz",
    "province": "Laguna",
    "latitude": 14.281,
    "longitude": 121.417,
    "schoolType": "Grade 11-12",
    "source": "Master Directory 2026",
    "isActive": true
  },
  {
    "schoolId": "SCH-ama-computer-learning-center-college-of-sa-402299",
    "schoolName": "AMA Computer Learning Center College of San Pablo City",
    "normalizedSchoolName": "AMA COMPUTER LEARNING CENTER COLLEGE OF SAN PABLO CITY",
    "municipality": "San Pablo City",
    "province": "Laguna",
    "latitude": 14.070326,
    "longitude": 121.323997,
    "schoolType": "Grade 11-12",
    "source": "Master Directory 2026",
    "isActive": true
  },
  {
    "schoolId": "SCH-ama-computer-learning-center-of-antipolo-i-404862",
    "schoolName": "AMA Computer Learning Center of Antipolo Inc.",
    "normalizedSchoolName": "AMA COMPUTER LEARNING CENTER OF ANTIPOLO INC",
    "municipality": "Laguna",
    "province": "Quezon",
    "latitude": 14.5813687,
    "longitude": 121.1759566,
    "schoolType": "Grade 11-12",
    "source": "Master Directory 2026",
    "isActive": true
  },
  {
    "schoolId": "SCH-ama-computer-learning-center-of-bacoor-inc-407228",
    "schoolName": "AMA Computer Learning Center of Bacoor, Inc.",
    "normalizedSchoolName": "AMA COMPUTER LEARNING CENTER OF BACOOR INC",
    "municipality": "Bacoor City",
    "province": "Cavite",
    "latitude": 14.4371058,
    "longitude": 120.9484604,
    "schoolType": "Grade 11-12",
    "source": "Master Directory 2026",
    "isActive": true
  },
  {
    "schoolId": "SCH-ama-computer-college-batangas-city-402047",
    "schoolName": "AMA Computer College-Batangas City",
    "normalizedSchoolName": "AMA COMPUTER COLLEGEBATANGAS CITY",
    "municipality": "Batangas City",
    "province": "Batangas",
    "latitude": 13.756,
    "longitude": 121.058,
    "schoolType": "Grade 11-12",
    "source": "Master Directory 2026",
    "isActive": true
  },
  {
    "schoolId": "SCH-ama-computer-learning-center-of-dasmarinas-407231",
    "schoolName": "AMA Computer Learning Center of Dasmariñas, Cavite",
    "normalizedSchoolName": "AMA COMPUTER LEARNING CENTER OF DASMARINAS CAVITE",
    "municipality": "Dasmariñas City",
    "province": "Cavite",
    "latitude": 14.3965826,
    "longitude": 120.9717267,
    "schoolType": "Grade 11-12",
    "source": "Master Directory 2026",
    "isActive": true
  },
  {
    "schoolId": "SCH-ama-computer-college-sta-cruz-402153",
    "schoolName": "AMA Computer College-Sta.Cruz",
    "normalizedSchoolName": "AMA COMPUTER COLLEGESTACRUZ",
    "municipality": "Santa Cruz",
    "province": "Laguna",
    "latitude": 14.281,
    "longitude": 121.417,
    "schoolType": "Grade 11-12",
    "source": "Master Directory 2026",
    "isActive": true
  },
  {
    "schoolId": "SCH-ama-computer-learning-college-of-san-pedro-402154",
    "schoolName": "AMA Computer Learning College of San Pedro",
    "normalizedSchoolName": "AMA COMPUTER LEARNING COLLEGE OF SAN PEDRO",
    "municipality": "City of San Pedro",
    "province": "Laguna",
    "latitude": 14.3649399,
    "longitude": 121.0555192,
    "schoolType": "Grade 11-12",
    "source": "Master Directory 2026",
    "isActive": true
  },
  {
    "schoolId": "SCH-angelita-v-del-mundo-foundation-avm-founda-402157",
    "schoolName": "ANGELITA V. DEL MUNDO FOUNDATION (AVM FOUNDATION) INC.",
    "normalizedSchoolName": "ANGELITA V DEL MUNDO FOUNDATION AVM FOUNDATION INC",
    "municipality": "Pagsanjan",
    "province": "Laguna",
    "latitude": 14.2730396,
    "longitude": 121.4549042,
    "schoolType": "Grade 11-12",
    "source": "Master Directory 2026",
    "isActive": true
  },
  {
    "schoolId": "SCH-angelita-v-del-mundo-foundation-avm-founda-409404",
    "schoolName": "ANGELITA V. DEL MUNDO FOUNDATION (AVM FOUNDATION) INC.",
    "normalizedSchoolName": "ANGELITA V DEL MUNDO FOUNDATION AVM FOUNDATION INC",
    "municipality": "Laguna",
    "province": "Rizal",
    "latitude": 14.2730396,
    "longitude": 121.4549042,
    "schoolType": "Grade 11-12",
    "source": "Master Directory 2026",
    "isActive": true
  },
  {
    "schoolId": "SCH-angelo-l-loyola-senior-high-school-342284",
    "schoolName": "Angelo L. Loyola Senior High School",
    "normalizedSchoolName": "ANGELO L LOYOLA SENIOR HIGH SCHOOL",
    "municipality": "Laguna",
    "province": "Laguna",
    "latitude": 14.2976929,
    "longitude": 121.0494114,
    "schoolType": "Grade 11-12",
    "source": "Master Directory 2026",
    "isActive": true
  },
  {
    "schoolId": "SCH-anihan-technical-school-404958",
    "schoolName": "Anihan Technical School",
    "normalizedSchoolName": "ANIHAN TECHNICAL SCHOOL",
    "municipality": "Calamba City",
    "province": "Laguna",
    "latitude": 14.1711924,
    "longitude": 121.1334729,
    "schoolType": "Grade 11-12",
    "source": "Master Directory 2026",
    "isActive": true
  },
  {
    "schoolId": "SCH-ann-arbor-montessori-learning-center-inc-409106",
    "schoolName": "Ann Arbor Montessori Learning Center Inc.",
    "normalizedSchoolName": "ANN ARBOR MONTESSORI LEARNING CENTER INC",
    "municipality": "Laguna",
    "province": "Laguna",
    "latitude": 14.3052255,
    "longitude": 121.0678847,
    "schoolType": "Grade 11-12",
    "source": "Master Directory 2026",
    "isActive": true
  },
  {
    "schoolId": "SCH-antipolo-city-senior-hs-342175",
    "schoolName": "Antipolo City Senior HS",
    "normalizedSchoolName": "ANTIPOLO CITY SENIOR HS",
    "municipality": "Laguna",
    "province": "Laguna",
    "latitude": 14.618749,
    "longitude": 121.1666617,
    "schoolType": "Grade 11-12",
    "source": "Master Directory 2026",
    "isActive": true
  },
  {
    "schoolId": "SCH-ark-technological-institute-education-syst-405210",
    "schoolName": "Ark Technological Institute Education System, Inc.",
    "normalizedSchoolName": "ARK TECHNOLOGICAL INSTITUTE EDUCATION SYSTEM INC",
    "municipality": "Laguna",
    "province": "Laguna",
    "latitude": 14.158284,
    "longitude": 120.7464897,
    "schoolType": "Grade 11-12",
    "source": "Master Directory 2026",
    "isActive": true
  },
  {
    "schoolId": "SCH-arma-college-of-technology-training-and-as-411448",
    "schoolName": "ARMA COLLEGE OF TECHNOLOGY TRAINING AND ASSESSMENT CENTER INC.",
    "normalizedSchoolName": "ARMA COLLEGE OF TECHNOLOGY TRAINING AND ASSESSMENT CENTER INC",
    "municipality": "Biñan",
    "province": "Rizal",
    "latitude": 14.5872119,
    "longitude": 121.1735246,
    "schoolType": "Grade 11-12",
    "source": "Master Directory 2026",
    "isActive": true
  },
  {
    "schoolId": "SCH-asian-caregiving-and-technology-education--404916",
    "schoolName": "Asian Caregiving and Technology Education Centers-Bacoor, Inc.",
    "normalizedSchoolName": "ASIAN CAREGIVING AND TECHNOLOGY EDUCATION CENTERSBACOOR INC",
    "municipality": "Laguna",
    "province": "Laguna",
    "latitude": 14.461074,
    "longitude": 120.961423,
    "schoolType": "Grade 11-12",
    "source": "Master Directory 2026",
    "isActive": true
  },
  {
    "schoolId": "SCH-asian-college-of-computer-and-maritime-stu-410878",
    "schoolName": "ASIAN COLLEGE OF COMPUTER AND MARITIME STUDIES (ACCMS) INC.",
    "normalizedSchoolName": "ASIAN COLLEGE OF COMPUTER AND MARITIME STUDIES ACCMS INC",
    "municipality": "Laguna",
    "province": "Laguna",
    "latitude": 12.879721,
    "longitude": 121.774017,
    "schoolType": "Grade 11-12",
    "source": "Master Directory 2026",
    "isActive": true
  },
  {
    "schoolId": "SCH-asian-institute-of-computer-studies-bacoor-405024",
    "schoolName": "Asian Institute of Computer Studies-Bacoor",
    "normalizedSchoolName": "ASIAN INSTITUTE OF COMPUTER STUDIESBACOOR",
    "municipality": "City of Bacoor",
    "province": "Cavite",
    "latitude": 14.459,
    "longitude": 120.938,
    "schoolType": "Grade 11-12",
    "source": "Master Directory 2026",
    "isActive": true
  },
  {
    "schoolId": "SCH-asian-institute-of-computer-studies-montal-409149",
    "schoolName": "Asian Institute of Computer Studies-Montalban",
    "normalizedSchoolName": "ASIAN INSTITUTE OF COMPUTER STUDIESMONTALBAN",
    "municipality": "Rodriguez",
    "province": "Rizal",
    "latitude": 14.731,
    "longitude": 121.141,
    "schoolType": "Grade 11-12",
    "source": "Master Directory 2026",
    "isActive": true
  },
  {
    "schoolId": "SCH-asian-institute-of-computer-studies-bacoor-404918",
    "schoolName": "Asian Institute of Computer Studies-Bacoor",
    "normalizedSchoolName": "ASIAN INSTITUTE OF COMPUTER STUDIESBACOOR",
    "municipality": "City of Bacoor",
    "province": "Cavite",
    "latitude": 14.459,
    "longitude": 120.938,
    "schoolType": "Grade 11-12",
    "source": "Master Directory 2026",
    "isActive": true
  },
  {
    "schoolId": "SCH-asian-institute-of-computer-studies-batang-404943",
    "schoolName": "Asian Institute of Computer Studies-Batangas City",
    "normalizedSchoolName": "ASIAN INSTITUTE OF COMPUTER STUDIESBATANGAS CITY",
    "municipality": "Batangas City",
    "province": "Batangas",
    "latitude": 13.756,
    "longitude": 121.058,
    "schoolType": "Grade 11-12",
    "source": "Master Directory 2026",
    "isActive": true
  },
  {
    "schoolId": "SCH-asian-institute-of-computer-studies-montal-404959",
    "schoolName": "Asian Institute of Computer Studies-Montalban",
    "normalizedSchoolName": "ASIAN INSTITUTE OF COMPUTER STUDIESMONTALBAN",
    "municipality": "Rodriguez",
    "province": "Rizal",
    "latitude": 14.731,
    "longitude": 121.141,
    "schoolType": "Grade 11-12",
    "source": "Master Directory 2026",
    "isActive": true
  },
  {
    "schoolId": "SCH-asian-institute-of-computer-studies-montal-410453",
    "schoolName": "Asian Institute of Computer Studies-Montalban",
    "normalizedSchoolName": "ASIAN INSTITUTE OF COMPUTER STUDIESMONTALBAN",
    "municipality": "Rodriguez",
    "province": "Rizal",
    "latitude": 14.731,
    "longitude": 121.141,
    "schoolType": "Grade 11-12",
    "source": "Master Directory 2026",
    "isActive": true
  },
  {
    "schoolId": "SCH-asian-institute-of-computer-studies-bacoor-405080",
    "schoolName": "Asian Institute of Computer Studies-Bacoor",
    "normalizedSchoolName": "ASIAN INSTITUTE OF COMPUTER STUDIESBACOOR",
    "municipality": "City of Bacoor",
    "province": "Cavite",
    "latitude": 14.459,
    "longitude": 120.938,
    "schoolType": "Grade 11-12",
    "source": "Master Directory 2026",
    "isActive": true
  },
  {
    "schoolId": "SCH-asian-institute-of-computer-studies-bacoor-406978",
    "schoolName": "Asian Institute of Computer Studies-Bacoor",
    "normalizedSchoolName": "ASIAN INSTITUTE OF COMPUTER STUDIESBACOOR",
    "municipality": "City of Bacoor",
    "province": "Cavite",
    "latitude": 14.459,
    "longitude": 120.938,
    "schoolType": "Grade 11-12",
    "source": "Master Directory 2026",
    "isActive": true
  },
  {
    "schoolId": "SCH-asian-institute-of-computer-studies-montal-405248",
    "schoolName": "Asian Institute of Computer Studies-Montalban",
    "normalizedSchoolName": "ASIAN INSTITUTE OF COMPUTER STUDIESMONTALBAN",
    "municipality": "Rodriguez",
    "province": "Rizal",
    "latitude": 14.731,
    "longitude": 121.141,
    "schoolType": "Grade 11-12",
    "source": "Master Directory 2026",
    "isActive": true
  },
  {
    "schoolId": "SCH-asian-institute-of-computer-studies-bacoor-405196",
    "schoolName": "Asian Institute of Computer Studies-Bacoor",
    "normalizedSchoolName": "ASIAN INSTITUTE OF COMPUTER STUDIESBACOOR",
    "municipality": "City of Bacoor",
    "province": "Cavite",
    "latitude": 14.459,
    "longitude": 120.938,
    "schoolType": "Grade 11-12",
    "source": "Master Directory 2026",
    "isActive": true
  },
  {
    "schoolId": "SCH-asian-institute-of-computer-studies-bacoor-405372",
    "schoolName": "Asian Institute of Computer Studies-Bacoor",
    "normalizedSchoolName": "ASIAN INSTITUTE OF COMPUTER STUDIESBACOOR",
    "municipality": "City of Bacoor",
    "province": "Cavite",
    "latitude": 14.459,
    "longitude": 120.938,
    "schoolType": "Grade 11-12",
    "source": "Master Directory 2026",
    "isActive": true
  },
  {
    "schoolId": "SCH-asian-institute-of-computer-studies-montal-405345",
    "schoolName": "Asian Institute of Computer Studies-Montalban",
    "normalizedSchoolName": "ASIAN INSTITUTE OF COMPUTER STUDIESMONTALBAN",
    "municipality": "Rodriguez",
    "province": "Rizal",
    "latitude": 14.731,
    "longitude": 121.141,
    "schoolType": "Grade 11-12",
    "source": "Master Directory 2026",
    "isActive": true
  },
  {
    "schoolId": "SCH-asian-institute-of-computer-studies-montal-405259",
    "schoolName": "Asian Institute of Computer Studies-Montalban",
    "normalizedSchoolName": "ASIAN INSTITUTE OF COMPUTER STUDIESMONTALBAN",
    "municipality": "Rodriguez",
    "province": "Rizal",
    "latitude": 14.731,
    "longitude": 121.141,
    "schoolType": "Grade 11-12",
    "source": "Master Directory 2026",
    "isActive": true
  },
  {
    "schoolId": "SCH-asian-institute-of-technology-and-educatio-402216",
    "schoolName": "Asian Institute of Technology and Education-Tiaong Campus",
    "normalizedSchoolName": "ASIAN INSTITUTE OF TECHNOLOGY AND EDUCATIONTIAONG CAMPUS",
    "municipality": "Tiaong",
    "province": "Quezon",
    "latitude": 13.963,
    "longitude": 121.322,
    "schoolType": "Grade 11-12",
    "source": "Master Directory 2026",
    "isActive": true
  },
  {
    "schoolId": "SCH-asian-institute-of-technology-sciences-and-411152",
    "schoolName": "Asian Institute of Technology Sciences and Arts (AITSA)",
    "normalizedSchoolName": "ASIAN INSTITUTE OF TECHNOLOGY SCIENCES AND ARTS AITSA",
    "municipality": "City of Cabuyao",
    "province": "Laguna",
    "latitude": 14.278,
    "longitude": 121.125,
    "schoolType": "Grade 11-12",
    "source": "Master Directory 2026",
    "isActive": true
  },
  {
    "schoolId": "SCH-asian-institute-of-technology-sciences-and-411154",
    "schoolName": "Asian Institute of Technology Sciences and Arts (AITSA)",
    "normalizedSchoolName": "ASIAN INSTITUTE OF TECHNOLOGY SCIENCES AND ARTS AITSA",
    "municipality": "City of Cabuyao",
    "province": "Laguna",
    "latitude": 14.278,
    "longitude": 121.125,
    "schoolType": "Grade 11-12",
    "source": "Master Directory 2026",
    "isActive": true
  },
  {
    "schoolId": "SCH-asian-institute-of-technology-sciences-and-407996",
    "schoolName": "Asian Institute of Technology Sciences and Arts (AITSA)",
    "normalizedSchoolName": "ASIAN INSTITUTE OF TECHNOLOGY SCIENCES AND ARTS AITSA",
    "municipality": "City of Cabuyao",
    "province": "Laguna",
    "latitude": 14.278,
    "longitude": 121.125,
    "schoolType": "Grade 11-12",
    "source": "Master Directory 2026",
    "isActive": true
  },
  {
    "schoolId": "SCH-asian-institute-of-technology-sciences-and-410558",
    "schoolName": "Asian Institute of Technology Sciences and Arts (AITSA)",
    "normalizedSchoolName": "ASIAN INSTITUTE OF TECHNOLOGY SCIENCES AND ARTS AITSA",
    "municipality": "City of Cabuyao",
    "province": "Laguna",
    "latitude": 14.278,
    "longitude": 121.125,
    "schoolType": "Grade 11-12",
    "source": "Master Directory 2026",
    "isActive": true
  },
  {
    "schoolId": "SCH-asian-institute-of-technology-sciences-and-410702",
    "schoolName": "Asian Institute of Technology Sciences and Arts (AITSA)",
    "normalizedSchoolName": "ASIAN INSTITUTE OF TECHNOLOGY SCIENCES AND ARTS AITSA",
    "municipality": "City of Cabuyao",
    "province": "Laguna",
    "latitude": 14.278,
    "longitude": 121.125,
    "schoolType": "Grade 11-12",
    "source": "Master Directory 2026",
    "isActive": true
  },
  {
    "schoolId": "SCH-asian-institute-of-technology-sciences-and-410793",
    "schoolName": "Asian Institute of Technology Sciences and Arts (AITSA)",
    "normalizedSchoolName": "ASIAN INSTITUTE OF TECHNOLOGY SCIENCES AND ARTS AITSA",
    "municipality": "City of Cabuyao",
    "province": "Laguna",
    "latitude": 14.278,
    "longitude": 121.125,
    "schoolType": "Grade 11-12",
    "source": "Master Directory 2026",
    "isActive": true
  },
  {
    "schoolId": "SCH-asian-institute-science-and-technology-col-405081",
    "schoolName": "Asian Institute Science and Technology College-Dasmariñas",
    "normalizedSchoolName": "ASIAN INSTITUTE SCIENCE AND TECHNOLOGY COLLEGEDASMARINAS",
    "municipality": "Dasmariñas City",
    "province": "Laguna",
    "latitude": 14.3276158,
    "longitude": 120.9397432,
    "schoolType": "Grade 11-12",
    "source": "Master Directory 2026",
    "isActive": true
  },
  {
    "schoolId": "SCH-asian-school-of-hospitality-arts-409911",
    "schoolName": "Asian School of Hospitality Arts",
    "normalizedSchoolName": "ASIAN SCHOOL OF HOSPITALITY ARTS",
    "municipality": "Laguna",
    "province": "Laguna",
    "latitude": 12.879721,
    "longitude": 121.774017,
    "schoolType": "Grade 11-12",
    "source": "Master Directory 2026",
    "isActive": true
  },
  {
    "schoolId": "SCH-balayan-senior-high-school-342209",
    "schoolName": "Balayan Senior High School",
    "normalizedSchoolName": "BALAYAN SENIOR HIGH SCHOOL",
    "municipality": "Balayan",
    "province": "Batangas",
    "latitude": 13.9520391,
    "longitude": 120.7183888,
    "schoolType": "Grade 11-12",
    "source": "Master Directory 2026",
    "isActive": true
  },
  {
    "schoolId": "SCH-barangay-longos-senior-high-school-342343",
    "schoolName": "Barangay Longos Senior High School",
    "normalizedSchoolName": "BARANGAY LONGOS SENIOR HIGH SCHOOL",
    "municipality": "Laguna",
    "province": "Laguna",
    "latitude": 14.6509976,
    "longitude": 120.9606061,
    "schoolType": "Grade 11-12",
    "source": "Master Directory 2026",
    "isActive": true
  },
  {
    "schoolId": "SCH-baras-senior-high-school-342568",
    "schoolName": "Baras Senior High School",
    "normalizedSchoolName": "BARAS SENIOR HIGH SCHOOL",
    "municipality": "Laguna",
    "province": "Laguna",
    "latitude": 13.8255575,
    "longitude": 121.3945838,
    "schoolType": "Grade 11-12",
    "source": "Master Directory 2026",
    "isActive": true
  },
  {
    "schoolId": "SCH-batangas-city-south-senior-high-school-305804",
    "schoolName": "Batangas City South Senior High School",
    "normalizedSchoolName": "BATANGAS CITY SOUTH SENIOR HIGH SCHOOL",
    "municipality": "Laguna",
    "province": "Laguna",
    "latitude": 14.5656805,
    "longitude": 121.0320766,
    "schoolType": "Grade 11-12",
    "source": "Master Directory 2026",
    "isActive": true
  },
  {
    "schoolId": "SCH-binan-city-senior-high-school-san-antonio--342242",
    "schoolName": "Biñan City Senior High School-San Antonio Campus",
    "normalizedSchoolName": "BINAN CITY SENIOR HIGH SCHOOLSAN ANTONIO CAMPUS",
    "municipality": "Biñan",
    "province": "Laguna",
    "latitude": 14.3374771,
    "longitude": 121.0869764,
    "schoolType": "Grade 11-12",
    "source": "Master Directory 2026",
    "isActive": true
  },
  {
    "schoolId": "SCH-binan-city-senior-high-school-timbao-campu-305587",
    "schoolName": "BIÑAN CITY SENIOR HIGH SCHOOL-TIMBAO CAMPUS",
    "normalizedSchoolName": "BINAN CITY SENIOR HIGH SCHOOLTIMBAO CAMPUS",
    "municipality": "Laguna",
    "province": "Laguna",
    "latitude": 14.7498896,
    "longitude": 121.1574106,
    "schoolType": "Grade 11-12",
    "source": "Master Directory 2026",
    "isActive": true
  },
  {
    "schoolId": "SCH-binan-city-senior-high-school-west-campus-306240",
    "schoolName": "Biñan City Senior High School-West Campus",
    "normalizedSchoolName": "BINAN CITY SENIOR HIGH SCHOOLWEST CAMPUS",
    "municipality": "Biñan",
    "province": "Laguna",
    "latitude": 14.2982203,
    "longitude": 121.0580686,
    "schoolType": "Grade 11-12",
    "source": "Master Directory 2026",
    "isActive": true
  },
  {
    "schoolId": "SCH-binan-pagsanjan-senior-high-school-306259",
    "schoolName": "Biñan Pagsanjan Senior High School",
    "normalizedSchoolName": "BINAN PAGSANJAN SENIOR HIGH SCHOOL",
    "municipality": "Laguna",
    "province": "Laguna",
    "latitude": 14.2430809,
    "longitude": 121.4464189,
    "schoolType": "Grade 11-12",
    "source": "Master Directory 2026",
    "isActive": true
  },
  {
    "schoolId": "SCH-binan-senior-high-school-timbao-campus-342240",
    "schoolName": "Biñan Senior High School Timbao Campus",
    "normalizedSchoolName": "BINAN SENIOR HIGH SCHOOL TIMBAO CAMPUS",
    "municipality": "Biñan",
    "province": "Laguna",
    "latitude": 14.3155259,
    "longitude": 121.0769437,
    "schoolType": "Grade 11-12",
    "source": "Master Directory 2026",
    "isActive": true
  },
  {
    "schoolId": "SCH-binangonan-catholic-college-409653",
    "schoolName": "Binangonan Catholic College",
    "normalizedSchoolName": "BINANGONAN CATHOLIC COLLEGE",
    "municipality": "Binangonan",
    "province": "Rizal",
    "latitude": 14.464,
    "longitude": 121.192,
    "schoolType": "Grade 11-12",
    "source": "Master Directory 2026",
    "isActive": true
  },
  {
    "schoolId": "SCH-cabuyao-institute-of-technology-410460",
    "schoolName": "Cabuyao Institute of Technology",
    "normalizedSchoolName": "CABUYAO INSTITUTE OF TECHNOLOGY",
    "municipality": "Laguna",
    "province": "Laguna",
    "latitude": 14.2551964,
    "longitude": 121.1384144,
    "schoolType": "Grade 11-12",
    "source": "Master Directory 2026",
    "isActive": true
  },
  {
    "schoolId": "SCH-cainta-senior-high-school-342564",
    "schoolName": "Cainta Senior High School",
    "normalizedSchoolName": "CAINTA SENIOR HIGH SCHOOL",
    "municipality": "Victoria",
    "province": "Laguna",
    "latitude": 14.5726133,
    "longitude": 121.1224057,
    "schoolType": "Grade 11-12",
    "source": "Master Directory 2026",
    "isActive": true
  },
  {
    "schoolId": "SCH-calaca-senior-high-school-342205",
    "schoolName": "Calaca Senior High School",
    "normalizedSchoolName": "CALACA SENIOR HIGH SCHOOL",
    "municipality": "Laguna",
    "province": "Batangas",
    "latitude": 13.9400023,
    "longitude": 120.8174098,
    "schoolType": "Grade 11-12",
    "source": "Master Directory 2026",
    "isActive": true
  },
  {
    "schoolId": "SCH-calamba-city-senior-high-school-342253",
    "schoolName": "Calamba City Senior High School",
    "normalizedSchoolName": "CALAMBA CITY SENIOR HIGH SCHOOL",
    "municipality": "Laguna",
    "province": "Laguna",
    "latitude": 14.208536,
    "longitude": 121.1610876,
    "schoolType": "Grade 11-12",
    "source": "Master Directory 2026",
    "isActive": true
  },
  {
    "schoolId": "SCH-calantas-senior-high-school-342222",
    "schoolName": "Calantas Senior High School",
    "normalizedSchoolName": "CALANTAS SENIOR HIGH SCHOOL",
    "municipality": "Laguna",
    "province": "Batangas",
    "latitude": 13.7379949,
    "longitude": 121.3038992,
    "schoolType": "Grade 11-12",
    "source": "Master Directory 2026",
    "isActive": true
  },
  {
    "schoolId": "SCH-calatagan-senior-high-school-342211",
    "schoolName": "Calatagan Senior High School",
    "normalizedSchoolName": "CALATAGAN SENIOR HIGH SCHOOL",
    "municipality": "Calatagan",
    "province": "Batangas",
    "latitude": 13.8332571,
    "longitude": 120.6301304,
    "schoolType": "Grade 11-12",
    "source": "Master Directory 2026",
    "isActive": true
  },
  {
    "schoolId": "SCH-calubcub-i-senior-high-school-305473",
    "schoolName": "Calubcub I Senior High School",
    "normalizedSchoolName": "CALUBCUB I SENIOR HIGH SCHOOL",
    "municipality": "Laguna",
    "province": "Batangas",
    "latitude": 13.7517933,
    "longitude": 121.4215844,
    "schoolType": "Grade 11-12",
    "source": "Master Directory 2026",
    "isActive": true
  },
  {
    "schoolId": "SCH-canossa-academy-407519",
    "schoolName": "Canossa Academy",
    "normalizedSchoolName": "CANOSSA ACADEMY",
    "municipality": "Lipa City",
    "province": "Batangas",
    "latitude": 13.9468669,
    "longitude": 121.1470031,
    "schoolType": "Grade 11-12",
    "source": "Master Directory 2026",
    "isActive": true
  },
  {
    "schoolId": "SCH-capellan-institute-of-technology-san-pablo-405347",
    "schoolName": "Capellan Institute of Technology-San Pablo City",
    "normalizedSchoolName": "CAPELLAN INSTITUTE OF TECHNOLOGYSAN PABLO CITY",
    "municipality": "San Pablo City",
    "province": "Laguna",
    "latitude": 14.0737259,
    "longitude": 121.316432,
    "schoolType": "Grade 11-12",
    "source": "Master Directory 2026",
    "isActive": true
  },
  {
    "schoolId": "SCH-card-mri-development-institute-402158",
    "schoolName": "CARD-MRI Development Institute",
    "normalizedSchoolName": "CARDMRI DEVELOPMENT INSTITUTE",
    "municipality": "Bay",
    "province": "Laguna",
    "latitude": 14.183,
    "longitude": 121.285,
    "schoolType": "Grade 11-12",
    "source": "Master Directory 2026",
    "isActive": true
  },
  {
    "schoolId": "SCH-card-mri-development-institute-411112",
    "schoolName": "CARD-MRI Development Institute",
    "normalizedSchoolName": "CARDMRI DEVELOPMENT INSTITUTE",
    "municipality": "Bay",
    "province": "Laguna",
    "latitude": 14.183,
    "longitude": 121.285,
    "schoolType": "Grade 11-12",
    "source": "Master Directory 2026",
    "isActive": true
  },
  {
    "schoolId": "SCH-card-mri-development-institute-411192",
    "schoolName": "CARD-MRI Development Institute",
    "normalizedSchoolName": "CARDMRI DEVELOPMENT INSTITUTE",
    "municipality": "Bay",
    "province": "Laguna",
    "latitude": 14.183,
    "longitude": 121.285,
    "schoolType": "Grade 11-12",
    "source": "Master Directory 2026",
    "isActive": true
  },
  {
    "schoolId": "SCH-cardona-senior-high-school-305538",
    "schoolName": "Cardona Senior High School",
    "normalizedSchoolName": "CARDONA SENIOR HIGH SCHOOL",
    "municipality": "Laguna",
    "province": "Laguna",
    "latitude": 14.4829606,
    "longitude": 121.2332538,
    "schoolType": "Grade 11-12",
    "source": "Master Directory 2026",
    "isActive": true
  },
  {
    "schoolId": "SCH-cavite-school-of-life-407512",
    "schoolName": "Cavite School of Life",
    "normalizedSchoolName": "CAVITE SCHOOL OF LIFE",
    "municipality": "Dasmariñas City",
    "province": "Cavite",
    "latitude": 14.3534024,
    "longitude": 120.9814138,
    "schoolType": "Grade 11-12",
    "source": "Master Directory 2026",
    "isActive": true
  },
  {
    "schoolId": "SCH-cavite-west-point-college-cavite-city-inc-409153",
    "schoolName": "Cavite West Point College - Cavite City, Inc.",
    "normalizedSchoolName": "CAVITE WEST POINT COLLEGE CAVITE CITY INC",
    "municipality": "Laguna",
    "province": "Laguna",
    "latitude": 14.4781369,
    "longitude": 120.894342,
    "schoolType": "Grade 11-12",
    "source": "Master Directory 2026",
    "isActive": true
  },
  {
    "schoolId": "SCH-cavite-west-point-college-407376",
    "schoolName": "Cavite West Point College",
    "normalizedSchoolName": "CAVITE WEST POINT COLLEGE",
    "municipality": "Ternate",
    "province": "Cavite",
    "latitude": 14.289,
    "longitude": 120.716,
    "schoolType": "Grade 11-12",
    "source": "Master Directory 2026",
    "isActive": true
  },
  {
    "schoolId": "SCH-central-rizal-institute-of-technology-inc-348065",
    "schoolName": "Central Rizal Institute of Technology Inc.",
    "normalizedSchoolName": "CENTRAL RIZAL INSTITUTE OF TECHNOLOGY INC",
    "municipality": "Laguna",
    "province": "Laguna",
    "latitude": 14.5906955,
    "longitude": 121.1141208,
    "schoolType": "Grade 11-12",
    "source": "Master Directory 2026",
    "isActive": true
  },
  {
    "schoolId": "SCH-central-rizal-institute-of-technology-inc-1425797",
    "schoolName": "Central Rizal Institute of Technology Inc.",
    "normalizedSchoolName": "CENTRAL RIZAL INSTITUTE OF TECHNOLOGY INC",
    "municipality": "Laguna",
    "province": "Laguna",
    "latitude": 14.5906955,
    "longitude": 121.1141208,
    "schoolType": "Grade 11-12",
    "source": "Master Directory 2026",
    "isActive": true
  },
  {
    "schoolId": "SCH-citi-global-college-binan-409567",
    "schoolName": "Citi Global College-Biñan",
    "normalizedSchoolName": "CITI GLOBAL COLLEGEBINAN",
    "municipality": "City of Biñan",
    "province": "Laguna",
    "latitude": 14.342,
    "longitude": 121.08,
    "schoolType": "Grade 11-12",
    "source": "Master Directory 2026",
    "isActive": true
  },
  {
    "schoolId": "SCH-citi-global-college-binan-410464",
    "schoolName": "Citi Global College-Biñan",
    "normalizedSchoolName": "CITI GLOBAL COLLEGEBINAN",
    "municipality": "City of Biñan",
    "province": "Laguna",
    "latitude": 14.342,
    "longitude": 121.08,
    "schoolType": "Grade 11-12",
    "source": "Master Directory 2026",
    "isActive": true
  },
  {
    "schoolId": "SCH-citi-global-college-binan-410893",
    "schoolName": "Citi Global College-Biñan",
    "normalizedSchoolName": "CITI GLOBAL COLLEGEBINAN",
    "municipality": "City of Biñan",
    "province": "Laguna",
    "latitude": 14.342,
    "longitude": 121.08,
    "schoolType": "Grade 11-12",
    "source": "Master Directory 2026",
    "isActive": true
  },
  {
    "schoolId": "SCH-citi-global-college-binan-411007",
    "schoolName": "Citi Global College-Biñan",
    "normalizedSchoolName": "CITI GLOBAL COLLEGEBINAN",
    "municipality": "City of Biñan",
    "province": "Laguna",
    "latitude": 14.342,
    "longitude": 121.08,
    "schoolType": "Grade 11-12",
    "source": "Master Directory 2026",
    "isActive": true
  },
  {
    "schoolId": "SCH-citi-global-college-binan-411381",
    "schoolName": "Citi Global College-Biñan",
    "normalizedSchoolName": "CITI GLOBAL COLLEGEBINAN",
    "municipality": "City of Biñan",
    "province": "Laguna",
    "latitude": 14.342,
    "longitude": 121.08,
    "schoolType": "Grade 11-12",
    "source": "Master Directory 2026",
    "isActive": true
  },
  {
    "schoolId": "SCH-citi-global-college-binan-407448",
    "schoolName": "Citi Global College-Biñan",
    "normalizedSchoolName": "CITI GLOBAL COLLEGEBINAN",
    "municipality": "City of Biñan",
    "province": "Laguna",
    "latitude": 14.342,
    "longitude": 121.08,
    "schoolType": "Grade 11-12",
    "source": "Master Directory 2026",
    "isActive": true
  },
  {
    "schoolId": "SCH-citi-global-college-binan-409405",
    "schoolName": "Citi Global College-Biñan",
    "normalizedSchoolName": "CITI GLOBAL COLLEGEBINAN",
    "municipality": "City of Biñan",
    "province": "Laguna",
    "latitude": 14.342,
    "longitude": 121.08,
    "schoolType": "Grade 11-12",
    "source": "Master Directory 2026",
    "isActive": true
  },
  {
    "schoolId": "SCH-city-college-of-tagaytay-600279",
    "schoolName": "City College of Tagaytay",
    "normalizedSchoolName": "CITY COLLEGE OF TAGAYTAY",
    "municipality": "City of Tagaytay",
    "province": "Cavite",
    "latitude": 14.115,
    "longitude": 120.962,
    "schoolType": "Grade 11-12",
    "source": "Master Directory 2026",
    "isActive": true
  },
  {
    "schoolId": "SCH-colegio-de-santo-domingo-de-silos-402025",
    "schoolName": "Colegio de Santo Domingo de Silos",
    "normalizedSchoolName": "COLEGIO DE SANTO DOMINGO DE SILOS",
    "municipality": "Calatagan",
    "province": "Batangas",
    "latitude": 13.832,
    "longitude": 120.632,
    "schoolType": "Grade 11-12",
    "source": "Master Directory 2026",
    "isActive": true
  },
  {
    "schoolId": "SCH-college-of-arts-and-sciences-of-asia-and-t-402353",
    "schoolName": "College of Arts and Sciences of Asia and the Pacific",
    "normalizedSchoolName": "COLLEGE OF ARTS AND SCIENCES OF ASIA AND THE PACIFIC",
    "municipality": "Taytay",
    "province": "Rizal",
    "latitude": 14.569,
    "longitude": 121.132,
    "schoolType": "Grade 11-12",
    "source": "Master Directory 2026",
    "isActive": true
  },
  {
    "schoolId": "SCH-college-of-arts-and-sciences-of-asia-and-t-402245",
    "schoolName": "College of Arts and Sciences of Asia and the Pacific",
    "normalizedSchoolName": "COLLEGE OF ARTS AND SCIENCES OF ASIA AND THE PACIFIC",
    "municipality": "Taytay",
    "province": "Rizal",
    "latitude": 14.569,
    "longitude": 121.132,
    "schoolType": "Grade 11-12",
    "source": "Master Directory 2026",
    "isActive": true
  },
  {
    "schoolId": "SCH-college-of-arts-and-sciences-of-asia-and-t-411240",
    "schoolName": "College of Arts and Sciences of Asia and the Pacific",
    "normalizedSchoolName": "COLLEGE OF ARTS AND SCIENCES OF ASIA AND THE PACIFIC",
    "municipality": "Taytay",
    "province": "Rizal",
    "latitude": 14.569,
    "longitude": 121.132,
    "schoolType": "Grade 11-12",
    "source": "Master Directory 2026",
    "isActive": true
  },
  {
    "schoolId": "SCH-college-of-saint-john-paul-ii-arts-and-sci-402247",
    "schoolName": "College of Saint John Paul II Arts And Sciences",
    "normalizedSchoolName": "COLLEGE OF SAINT JOHN PAUL II ARTS AND SCIENCES",
    "municipality": "Cainta",
    "province": "Rizal",
    "latitude": 14.578,
    "longitude": 121.122,
    "schoolType": "Grade 11-12",
    "source": "Master Directory 2026",
    "isActive": true
  },
  {
    "schoolId": "SCH-community-technological-college-inc-411321",
    "schoolName": "COMMUNITY TECHNOLOGICAL COLLEGE INC.",
    "normalizedSchoolName": "COMMUNITY TECHNOLOGICAL COLLEGE INC",
    "municipality": "Laguna",
    "province": "Laguna",
    "latitude": 13.9382696,
    "longitude": 121.6013616,
    "schoolType": "Grade 11-12",
    "source": "Master Directory 2026",
    "isActive": true
  },
  {
    "schoolId": "SCH-computer-site-ins-inc-408967",
    "schoolName": "Computer Site Ins. Inc.",
    "normalizedSchoolName": "COMPUTER SITE INS INC",
    "municipality": "Laguna",
    "province": "Laguna",
    "latitude": 10.2957375,
    "longitude": 123.8995079,
    "schoolType": "Grade 11-12",
    "source": "Master Directory 2026",
    "isActive": true
  },
  {
    "schoolId": "SCH-crecencia-drucila-lopez-senior-high-school-342575",
    "schoolName": "Crecencia Drucila Lopez Senior High School",
    "normalizedSchoolName": "CRECENCIA DRUCILA LOPEZ SENIOR HIGH SCHOOL",
    "municipality": "Laguna",
    "province": "Laguna",
    "latitude": 14.0709547,
    "longitude": 121.3123281,
    "schoolType": "Grade 11-12",
    "source": "Master Directory 2026",
    "isActive": true
  },
  {
    "schoolId": "SCH-cristo-rey-institute-for-career-developmen-409437",
    "schoolName": "CRISTO REY INSTITUTE FOR CAREER DEVELOPMENT, INC.",
    "normalizedSchoolName": "CRISTO REY INSTITUTE FOR CAREER DEVELOPMENT INC",
    "municipality": "Laguna",
    "province": "Rizal",
    "latitude": 13.755171,
    "longitude": 121.056171,
    "schoolType": "Grade 11-12",
    "source": "Master Directory 2026",
    "isActive": true
  },
  {
    "schoolId": "SCH-cstc-college-of-sciences-technology-and-co-409227",
    "schoolName": "CSTC College of Sciences Technology and Communications-Atimonan",
    "normalizedSchoolName": "CSTC COLLEGE OF SCIENCES TECHNOLOGY AND COMMUNICATIONSATIMONAN",
    "municipality": "Atimonan",
    "province": "Quezon",
    "latitude": 14.002,
    "longitude": 121.919,
    "schoolType": "Grade 11-12",
    "source": "Master Directory 2026",
    "isActive": true
  },
  {
    "schoolId": "SCH-cstc-college-of-sciences-technology-and-co-407277",
    "schoolName": "CSTC College of Sciences Technology and Communications-Atimonan",
    "normalizedSchoolName": "CSTC COLLEGE OF SCIENCES TECHNOLOGY AND COMMUNICATIONSATIMONAN",
    "municipality": "Atimonan",
    "province": "Quezon",
    "latitude": 14.002,
    "longitude": 121.919,
    "schoolType": "Grade 11-12",
    "source": "Master Directory 2026",
    "isActive": true
  },
  {
    "schoolId": "SCH-cuenca-senior-high-school-342202",
    "schoolName": "Cuenca Senior High School",
    "normalizedSchoolName": "CUENCA SENIOR HIGH SCHOOL",
    "municipality": "Cuenca",
    "province": "Batangas",
    "latitude": 13.8981708,
    "longitude": 121.0486554,
    "schoolType": "Grade 11-12",
    "source": "Master Directory 2026",
    "isActive": true
  },
  {
    "schoolId": "SCH-d-illumina-college-402056",
    "schoolName": "D'Illumina College",
    "normalizedSchoolName": "D'ILLUMINA COLLEGE",
    "municipality": "Calamba City",
    "province": "Laguna",
    "latitude": 14.2138535,
    "longitude": 121.1662847,
    "schoolType": "Grade 11-12",
    "source": "Master Directory 2026",
    "isActive": true
  },
  {
    "schoolId": "SCH-datacom-institute-of-computer-technology-409755",
    "schoolName": "DATACOM INSTITUTE OF COMPUTER TECHNOLOGY",
    "normalizedSchoolName": "DATACOM INSTITUTE OF COMPUTER TECHNOLOGY",
    "municipality": "Laguna",
    "province": "Laguna",
    "latitude": 12.879721,
    "longitude": 121.774017,
    "schoolType": "Grade 11-12",
    "source": "Master Directory 2026",
    "isActive": true
  },
  {
    "schoolId": "SCH-datacom-institute-of-computer-technology-c-410367",
    "schoolName": "Datacom Institute of Computer Technology Corporation",
    "normalizedSchoolName": "DATACOM INSTITUTE OF COMPUTER TECHNOLOGY CORPORATION",
    "municipality": "General Trias",
    "province": "Laguna",
    "latitude": 14.4053266,
    "longitude": 120.8597367,
    "schoolType": "Grade 11-12",
    "source": "Master Directory 2026",
    "isActive": true
  },
  {
    "schoolId": "SCH-datacom-institute-of-computer-technology-c-410786",
    "schoolName": "DATACOM INSTITUTE OF COMPUTER TECHNOLOGY CORPORATION",
    "normalizedSchoolName": "DATACOM INSTITUTE OF COMPUTER TECHNOLOGY CORPORATION",
    "municipality": "Laguna",
    "province": "Laguna",
    "latitude": 12.879721,
    "longitude": 121.774017,
    "schoolType": "Grade 11-12",
    "source": "Master Directory 2026",
    "isActive": true
  },
  {
    "schoolId": "SCH-de-la-salle-health-sciences-institute-402106",
    "schoolName": "De La Salle Health Sciences Institute",
    "normalizedSchoolName": "DE LA SALLE HEALTH SCIENCES INSTITUTE",
    "municipality": "City of Dasmariñas",
    "province": "Cavite",
    "latitude": 14.329,
    "longitude": 120.936,
    "schoolType": "Grade 11-12",
    "source": "Master Directory 2026",
    "isActive": true
  },
  {
    "schoolId": "SCH-dga-training-institute-inc-409566",
    "schoolName": "DGA Training Institute Inc.",
    "normalizedSchoolName": "DGA TRAINING INSTITUTE INC",
    "municipality": "Rodriguez",
    "province": "Rizal",
    "latitude": 14.5744565,
    "longitude": 121.1089307,
    "schoolType": "Grade 11-12",
    "source": "Master Directory 2026",
    "isActive": true
  },
  {
    "schoolId": "SCH-digitech-college-digital-communication-and-406394",
    "schoolName": "Digitech College (Digital Communication and Technological College, Inc.)",
    "normalizedSchoolName": "DIGITECH COLLEGE DIGITAL COMMUNICATION AND TECHNOLOGICAL COLLEGE INC",
    "municipality": "Lucena City",
    "province": "Quezon",
    "latitude": 13.9422407,
    "longitude": 121.6239192,
    "schoolType": "Grade 11-12",
    "source": "Master Directory 2026",
    "isActive": true
  },
  {
    "schoolId": "SCH-don-bosco-institute-of-arts-and-sciences-i-409095",
    "schoolName": "Don Bosco Institute of Arts and Sciences Inc.",
    "normalizedSchoolName": "DON BOSCO INSTITUTE OF ARTS AND SCIENCES INC",
    "municipality": "Laguna",
    "province": "Rizal",
    "latitude": 14.5656805,
    "longitude": 121.0320766,
    "schoolType": "Grade 11-12",
    "source": "Master Directory 2026",
    "isActive": true
  },
  {
    "schoolId": "SCH-dr-francisco-l-calingasan-memorial-college-407507",
    "schoolName": "Dr. Francisco L. Calingasan Memorial Colleges Foundation",
    "normalizedSchoolName": "DR FRANCISCO L CALINGASAN MEMORIAL COLLEGES FOUNDATION",
    "municipality": "Nasugbu",
    "province": "Batangas",
    "latitude": 14.073,
    "longitude": 120.632,
    "schoolType": "Grade 11-12",
    "source": "Master Directory 2026",
    "isActive": true
  },
  {
    "schoolId": "SCH-dr-jose-p-rizal-shs-342300",
    "schoolName": "Dr. Jose P. Rizal SHS",
    "normalizedSchoolName": "DR JOSE P RIZAL SHS",
    "municipality": "Laguna",
    "province": "Laguna",
    "latitude": 14.3383991,
    "longitude": 120.9560987,
    "schoolType": "Grade 11-12",
    "source": "Master Directory 2026",
    "isActive": true
  },
  {
    "schoolId": "SCH-e-zobel-foundation-inc-409739",
    "schoolName": "E. ZOBEL FOUNDATION, INC.",
    "normalizedSchoolName": "E ZOBEL FOUNDATION INC",
    "municipality": "Laguna",
    "province": "Laguna",
    "latitude": 14.2601269,
    "longitude": 121.1538564,
    "schoolType": "Grade 11-12",
    "source": "Master Directory 2026",
    "isActive": true
  },
  {
    "schoolId": "SCH-east-systems-college-of-rizal-402250",
    "schoolName": "East Systems College of Rizal",
    "normalizedSchoolName": "EAST SYSTEMS COLLEGE OF RIZAL",
    "municipality": "Morong",
    "province": "Rizal",
    "latitude": 14.511,
    "longitude": 121.239,
    "schoolType": "Grade 11-12",
    "source": "Master Directory 2026",
    "isActive": true
  },
  {
    "schoolId": "SCH-eastern-innovative-school-of-science-and-t-409625",
    "schoolName": "Eastern Innovative School of Science and Technology, Inc.",
    "normalizedSchoolName": "EASTERN INNOVATIVE SCHOOL OF SCIENCE AND TECHNOLOGY INC",
    "municipality": "Laguna",
    "province": "Laguna",
    "latitude": 14.6024419,
    "longitude": 121.1063758,
    "schoolType": "Grade 11-12",
    "source": "Master Directory 2026",
    "isActive": true
  },
  {
    "schoolId": "SCH-eastern-valley-school-inc-411251",
    "schoolName": "EASTERN VALLEY SCHOOL INC.",
    "normalizedSchoolName": "EASTERN VALLEY SCHOOL INC",
    "municipality": "Rodriguez",
    "province": "Rizal",
    "latitude": 14.7339357,
    "longitude": 121.1440127,
    "schoolType": "Grade 11-12",
    "source": "Master Directory 2026",
    "isActive": true
  },
  {
    "schoolId": "SCH-el-royale-hotelier-training-center-inc-409789",
    "schoolName": "EL ROYALE HOTELIER TRAINING CENTER INC.",
    "normalizedSchoolName": "EL ROYALE HOTELIER TRAINING CENTER INC",
    "municipality": "Laguna",
    "province": "Quezon",
    "latitude": 14.0254625,
    "longitude": 121.5955604,
    "schoolType": "Grade 11-12",
    "source": "Master Directory 2026",
    "isActive": true
  },
  {
    "schoolId": "SCH-el-royale-hotelier-training-center-inc-409790",
    "schoolName": "EL ROYALE HOTELIER TRAINING CENTER INC.",
    "normalizedSchoolName": "EL ROYALE HOTELIER TRAINING CENTER INC",
    "municipality": "Laguna",
    "province": "Quezon",
    "latitude": 14.0254625,
    "longitude": 121.5955604,
    "schoolType": "Grade 11-12",
    "source": "Master Directory 2026",
    "isActive": true
  },
  {
    "schoolId": "SCH-elizabeth-seton-school-407515",
    "schoolName": "Elizabeth Seton School",
    "normalizedSchoolName": "ELIZABETH SETON SCHOOL",
    "municipality": "Imus City",
    "province": "Cavite",
    "latitude": 14.3757914,
    "longitude": 120.9360382,
    "schoolType": "Grade 11-12",
    "source": "Master Directory 2026",
    "isActive": true
  },
  {
    "schoolId": "SCH-emilio-aguinaldo-college-402117",
    "schoolName": "Emilio Aguinaldo College",
    "normalizedSchoolName": "EMILIO AGUINALDO COLLEGE",
    "municipality": "City of Dasmariñas",
    "province": "Cavite",
    "latitude": 14.329,
    "longitude": 120.936,
    "schoolType": "Grade 11-12",
    "source": "Master Directory 2026",
    "isActive": true
  },
  {
    "schoolId": "SCH-emmanuel-john-institute-of-science-and-tec-409290",
    "schoolName": "EMMANUEL JOHN INSTITUTE OF SCIENCE & TECHNOLOGY (RIZAL) INC.",
    "normalizedSchoolName": "EMMANUEL JOHN INSTITUTE OF SCIENCE TECHNOLOGY RIZAL INC",
    "municipality": "Laguna",
    "province": "Laguna",
    "latitude": 14.7948449,
    "longitude": 120.8788873,
    "schoolType": "Grade 11-12",
    "source": "Master Directory 2026",
    "isActive": true
  },
  {
    "schoolId": "SCH-emmanuel-john-institute-of-science-and-tec-410988",
    "schoolName": "EMMANUEL JOHN INSTITUTE OF SCIENCE & TECHNOLOGY (RIZAL) INC.",
    "normalizedSchoolName": "EMMANUEL JOHN INSTITUTE OF SCIENCE TECHNOLOGY RIZAL INC",
    "municipality": "Laguna",
    "province": "Laguna",
    "latitude": 14.5099483,
    "longitude": 121.3011829,
    "schoolType": "Grade 11-12",
    "source": "Master Directory 2026",
    "isActive": true
  },
  {
    "schoolId": "SCH-emmanuela-jane-institute-of-science-and-te-411453",
    "schoolName": "EMMANUELA JANE INSTITUTE OF SCIENCE & TECHNOLOGY INC.",
    "normalizedSchoolName": "EMMANUELA JANE INSTITUTE OF SCIENCE TECHNOLOGY INC",
    "municipality": "Antipolo City",
    "province": "Rizal",
    "latitude": 14.6277539,
    "longitude": 121.1368492,
    "schoolType": "Grade 11-12",
    "source": "Master Directory 2026",
    "isActive": true
  },
  {
    "schoolId": "SCH-escuela-secondaria-senor-de-salinas-342288",
    "schoolName": "Escuela Secondaria Señor de Salinas",
    "normalizedSchoolName": "ESCUELA SECONDARIA SENOR DE SALINAS",
    "municipality": "Laguna",
    "province": "Laguna",
    "latitude": 14.4233341,
    "longitude": 120.8680037,
    "schoolType": "Grade 11-12",
    "source": "Master Directory 2026",
    "isActive": true
  },
  {
    "schoolId": "SCH-esra-technical-training-foundation-inc-408985",
    "schoolName": "ESRA Technical Training Foundation Inc.",
    "normalizedSchoolName": "ESRA TECHNICAL TRAINING FOUNDATION INC",
    "municipality": "Laguna",
    "province": "Rizal",
    "latitude": 14.5503736,
    "longitude": 121.1276388,
    "schoolType": "Grade 11-12",
    "source": "Master Directory 2026",
    "isActive": true
  },
  {
    "schoolId": "SCH-esra-technical-training-foundation-inc-410168",
    "schoolName": "ESRA Technical Training Foundation Inc.",
    "normalizedSchoolName": "ESRA TECHNICAL TRAINING FOUNDATION INC",
    "municipality": "Laguna",
    "province": "Laguna",
    "latitude": 14.5716043,
    "longitude": 121.0313599,
    "schoolType": "Grade 11-12",
    "source": "Master Directory 2026",
    "isActive": true
  },
  {
    "schoolId": "SCH-fame-academy-of-science-and-technology-fas-406929",
    "schoolName": "Fame Academy of Science & Technology (FAST), Inc.",
    "normalizedSchoolName": "FAME ACADEMY OF SCIENCE TECHNOLOGY FAST INC",
    "municipality": "Laguna",
    "province": "Batangas",
    "latitude": 13.8782253,
    "longitude": 120.9196097,
    "schoolType": "Grade 11-12",
    "source": "Master Directory 2026",
    "isActive": true
  },
  {
    "schoolId": "SCH-far-east-asia-pacific-institute-of-tourism-407424",
    "schoolName": "Far East Asia Pacific Institute of Tourism Science and Technology",
    "normalizedSchoolName": "FAR EAST ASIA PACIFIC INSTITUTE OF TOURISM SCIENCE AND TECHNOLOGY",
    "municipality": "Tanza",
    "province": "Cavite",
    "latitude": 14.394,
    "longitude": 120.853,
    "schoolType": "Grade 11-12",
    "source": "Master Directory 2026",
    "isActive": true
  },
  {
    "schoolId": "SCH-far-eastern-polytechnic-college-402120",
    "schoolName": "Far Eastern Polytechnic College",
    "normalizedSchoolName": "FAR EASTERN POLYTECHNIC COLLEGE",
    "municipality": "City of Dasmariñas",
    "province": "Cavite",
    "latitude": 14.329,
    "longitude": 120.936,
    "schoolType": "Grade 11-12",
    "source": "Master Directory 2026",
    "isActive": true
  },
  {
    "schoolId": "SCH-fcd-central-institute-incorporated-411099",
    "schoolName": "FCD CENTRAL INSTITUTE INCORPORATED",
    "normalizedSchoolName": "FCD CENTRAL INSTITUTE INCORPORATED",
    "municipality": "San Pablo City",
    "province": "Laguna",
    "latitude": 14.066619,
    "longitude": 121.324786,
    "schoolType": "Grade 11-12",
    "source": "Master Directory 2026",
    "isActive": true
  },
  {
    "schoolId": "SCH-aisat-college-dasmarinas-405118",
    "schoolName": "AISAT College-Dasmariñas",
    "normalizedSchoolName": "AISAT COLLEGEDASMARINAS",
    "municipality": "City of Dasmariñas",
    "province": "Cavite",
    "latitude": 14.329,
    "longitude": 120.936,
    "schoolType": "Grade 11-12",
    "source": "Master Directory 2026",
    "isActive": true
  },
  {
    "schoolId": "SCH-feapitsat-college-of-maragondon-inc-410556",
    "schoolName": "FEAPITSAT COLLEGE OF MARAGONDON INC.",
    "normalizedSchoolName": "FEAPITSAT COLLEGE OF MARAGONDON INC",
    "municipality": "Laguna",
    "province": "Laguna",
    "latitude": 14.276109,
    "longitude": 120.7374449,
    "schoolType": "Grade 11-12",
    "source": "Master Directory 2026",
    "isActive": true
  },
  {
    "schoolId": "SCH-feapitsat-colleges-inc-409839",
    "schoolName": "FEAPITSAT Colleges, Inc.",
    "normalizedSchoolName": "FEAPITSAT COLLEGES INC",
    "municipality": "Laguna",
    "province": "Laguna",
    "latitude": 14.3918445,
    "longitude": 120.8527223,
    "schoolType": "Grade 11-12",
    "source": "Master Directory 2026",
    "isActive": true
  },
  {
    "schoolId": "SCH-felix-amante-senior-high-school-305684",
    "schoolName": "Felix Amante Senior High School",
    "normalizedSchoolName": "FELIX AMANTE SENIOR HIGH SCHOOL",
    "municipality": "Laguna",
    "province": "Laguna",
    "latitude": 14.0627472,
    "longitude": 121.347129,
    "schoolType": "Grade 11-12",
    "source": "Master Directory 2026",
    "isActive": true
  },
  {
    "schoolId": "SCH-first-industrial-science-and-technology-co-409228",
    "schoolName": "First Industrial Science and Technology College",
    "normalizedSchoolName": "FIRST INDUSTRIAL SCIENCE AND TECHNOLOGY COLLEGE",
    "municipality": "City of Santo Tomas",
    "province": "Batangas",
    "latitude": 14.107,
    "longitude": 121.141,
    "schoolType": "Grade 11-12",
    "source": "Master Directory 2026",
    "isActive": true
  },
  {
    "schoolId": "SCH-five-star-standard-college-inc-424843",
    "schoolName": "Five Star Standard College, Inc.",
    "normalizedSchoolName": "FIVE STAR STANDARD COLLEGE INC",
    "municipality": "Laguna",
    "province": "Laguna",
    "latitude": 14.4553727,
    "longitude": 120.957185,
    "schoolType": "Grade 11-12",
    "source": "Master Directory 2026",
    "isActive": true
  },
  {
    "schoolId": "SCH-fms-institution-incorporated-410987",
    "schoolName": "FMS INSTITUTION INCORPORATED",
    "normalizedSchoolName": "FMS INSTITUTION INCORPORATED",
    "municipality": "Rodriguez",
    "province": "Rizal",
    "latitude": 14.7485193,
    "longitude": 121.1285809,
    "schoolType": "Grade 11-12",
    "source": "Master Directory 2026",
    "isActive": true
  },
  {
    "schoolId": "SCH-full-aces-international-school-for-skills--402074",
    "schoolName": "Full Aces International School for Skills and Technical Development. Inc.",
    "normalizedSchoolName": "FULL ACES INTERNATIONAL SCHOOL FOR SKILLS AND TECHNICAL DEVELOPMENT INC",
    "municipality": "Kawit",
    "province": "Cavite",
    "latitude": 14.4257879,
    "longitude": 120.8939856,
    "schoolType": "Grade 11-12",
    "source": "Master Directory 2026",
    "isActive": true
  },
  {
    "schoolId": "SCH-gardner-college-cainta-402261",
    "schoolName": "Gardner College Cainta",
    "normalizedSchoolName": "GARDNER COLLEGE CAINTA",
    "municipality": "Cainta",
    "province": "Rizal",
    "latitude": 14.578,
    "longitude": 121.122,
    "schoolType": "Grade 11-12",
    "source": "Master Directory 2026",
    "isActive": true
  },
  {
    "schoolId": "SCH-gateways-institute-of-science-and-technolo-404871",
    "schoolName": "Gateways Institute of Science and Technology (GIST) - Antipolo",
    "normalizedSchoolName": "GATEWAYS INSTITUTE OF SCIENCE AND TECHNOLOGY GIST ANTIPOLO",
    "municipality": "Antipolo City",
    "province": "Rizal",
    "latitude": 14.6221942,
    "longitude": 121.1676779,
    "schoolType": "Grade 11-12",
    "source": "Master Directory 2026",
    "isActive": true
  },
  {
    "schoolId": "SCH-gen-flaviano-yengko-senior-high-school-342588",
    "schoolName": "Gen. Flaviano Yengko Senior High School",
    "normalizedSchoolName": "GEN FLAVIANO YENGKO SENIOR HIGH SCHOOL",
    "municipality": "Laguna",
    "province": "Laguna",
    "latitude": 12.879721,
    "longitude": 121.774017,
    "schoolType": "Grade 11-12",
    "source": "Master Directory 2026",
    "isActive": true
  },
  {
    "schoolId": "SCH-gen-juan-castaneda-senior-high-school-342590",
    "schoolName": "Gen. Juan Castañeda Senior High School",
    "normalizedSchoolName": "GEN JUAN CASTANEDA SENIOR HIGH SCHOOL",
    "municipality": "Imus City",
    "province": "Laguna",
    "latitude": 14.3822919,
    "longitude": 120.9368611,
    "schoolType": "Grade 11-12",
    "source": "Master Directory 2026",
    "isActive": true
  },
  {
    "schoolId": "SCH-gen-pantaleon-garcia-senior-high-school-342589",
    "schoolName": "Gen. Pantaleon Garcia Senior High School",
    "normalizedSchoolName": "GEN PANTALEON GARCIA SENIOR HIGH SCHOOL",
    "municipality": "Laguna",
    "province": "Laguna",
    "latitude": 14.3928095,
    "longitude": 120.9197443,
    "schoolType": "Grade 11-12",
    "source": "Master Directory 2026",
    "isActive": true
  },
  {
    "schoolId": "SCH-gov-juanito-reyes-remulla-senior-high-scho-342587",
    "schoolName": "Gov. Juanito Reyes Remulla Senior High School",
    "normalizedSchoolName": "GOV JUANITO REYES REMULLA SENIOR HIGH SCHOOL",
    "municipality": "Laguna",
    "province": "Laguna",
    "latitude": 14.4408338,
    "longitude": 120.9290926,
    "schoolType": "Grade 11-12",
    "source": "Master Directory 2026",
    "isActive": true
  },
  {
    "schoolId": "SCH-grant-institute-of-trade-and-technology-405369",
    "schoolName": "Grant Institute of Trade and Technology",
    "normalizedSchoolName": "GRANT INSTITUTE OF TRADE AND TECHNOLOGY",
    "municipality": "San Pablo City",
    "province": "Laguna",
    "latitude": 14.0635622,
    "longitude": 121.3352101,
    "schoolType": "Grade 11-12",
    "source": "Master Directory 2026",
    "isActive": true
  },
  {
    "schoolId": "SCH-greatland-school-of-san-pedro-laguna-inc-410105",
    "schoolName": "GREATLAND SCHOOL OF SAN PEDRO LAGUNA INC.",
    "normalizedSchoolName": "GREATLAND SCHOOL OF SAN PEDRO LAGUNA INC",
    "municipality": "Laguna",
    "province": "Laguna",
    "latitude": 14.3498647,
    "longitude": 121.0507791,
    "schoolType": "Grade 11-12",
    "source": "Master Directory 2026",
    "isActive": true
  },
  {
    "schoolId": "SCH-greenfield-montessori-school-tanay-407520",
    "schoolName": "Greenfield Montessori School - Tanay",
    "normalizedSchoolName": "GREENFIELD MONTESSORI SCHOOL TANAY",
    "municipality": "Rodriguez",
    "province": "Rizal",
    "latitude": 14.5045735,
    "longitude": 121.2874911,
    "schoolType": "Grade 11-12",
    "source": "Master Directory 2026",
    "isActive": true
  },
  {
    "schoolId": "SCH-guinayangan-college-foundation-402223",
    "schoolName": "Guinayangan College Foundation",
    "normalizedSchoolName": "GUINAYANGAN COLLEGE FOUNDATION",
    "municipality": "Guinayangan",
    "province": "Quezon",
    "latitude": 13.9,
    "longitude": 122.449,
    "schoolType": "Grade 11-12",
    "source": "Master Directory 2026",
    "isActive": true
  },
  {
    "schoolId": "SCH-guinayangan-senior-high-school-305768",
    "schoolName": "Guinayangan Senior High School",
    "normalizedSchoolName": "GUINAYANGAN SENIOR HIGH SCHOOL",
    "municipality": "Laguna",
    "province": "Laguna",
    "latitude": 13.9131349,
    "longitude": 122.437956,
    "schoolType": "Grade 11-12",
    "source": "Master Directory 2026",
    "isActive": true
  },
  {
    "schoolId": "SCH-gulod-senior-high-school-342234",
    "schoolName": "Gulod Senior High School",
    "normalizedSchoolName": "GULOD SENIOR HIGH SCHOOL",
    "municipality": "Laguna",
    "province": "Laguna",
    "latitude": 13.762423,
    "longitude": 121.0825577,
    "schoolType": "Grade 11-12",
    "source": "Master Directory 2026",
    "isActive": true
  },
  {
    "schoolId": "SCH-hankuk-dream-high-christian-school-inc-410110",
    "schoolName": "HANKUK DREAM HIGH CHRISTIAN SCHOOL INC.",
    "normalizedSchoolName": "HANKUK DREAM HIGH CHRISTIAN SCHOOL INC",
    "municipality": "Laguna",
    "province": "Laguna",
    "latitude": 14.6123581,
    "longitude": 120.9838679,
    "schoolType": "Grade 11-12",
    "source": "Master Directory 2026",
    "isActive": true
  },
  {
    "schoolId": "SCH-holy-face-of-jesus-lyceum-of-san-jose-inc-405292",
    "schoolName": "Holy Face of Jesus Lyceum of San Jose Inc.",
    "normalizedSchoolName": "HOLY FACE OF JESUS LYCEUM OF SAN JOSE INC",
    "municipality": "Rodriguez",
    "province": "Rizal",
    "latitude": 14.7295662,
    "longitude": 121.1353944,
    "schoolType": "Grade 11-12",
    "source": "Master Directory 2026",
    "isActive": true
  },
  {
    "schoolId": "SCH-holy-face-of-jesus-lyceum-of-san-jose-inc-411454",
    "schoolName": "HOLY FACE OF JESUS LYCEUM OF SAN JOSE INC.",
    "normalizedSchoolName": "HOLY FACE OF JESUS LYCEUM OF SAN JOSE INC",
    "municipality": "Rodriguez",
    "province": "Rizal",
    "latitude": 14.7493255,
    "longitude": 121.1316224,
    "schoolType": "Grade 11-12",
    "source": "Master Directory 2026",
    "isActive": true
  },
  {
    "schoolId": "SCH-holy-family-academy-407508",
    "schoolName": "Holy Family Academy",
    "normalizedSchoolName": "HOLY FAMILY ACADEMY",
    "municipality": "Laguna",
    "province": "Batangas",
    "latitude": 13.8815103,
    "longitude": 121.2168684,
    "schoolType": "Grade 11-12",
    "source": "Master Directory 2026",
    "isActive": true
  },
  {
    "schoolId": "SCH-holy-family-academy-407511",
    "schoolName": "Holy Family Academy",
    "normalizedSchoolName": "HOLY FAMILY ACADEMY",
    "municipality": "Laguna",
    "province": "Cavite",
    "latitude": 14.29925,
    "longitude": 121.009515,
    "schoolType": "Grade 11-12",
    "source": "Master Directory 2026",
    "isActive": true
  },
  {
    "schoolId": "SCH-holy-trinity-school-of-padre-garcia-mataas-407509",
    "schoolName": "Holy Trinity School of Padre Garcia - Mataasnakahoy Branch, Inc.",
    "normalizedSchoolName": "HOLY TRINITY SCHOOL OF PADRE GARCIA MATAASNAKAHOY BRANCH INC",
    "municipality": "Laguna",
    "province": "Batangas",
    "latitude": 13.957001,
    "longitude": 121.115669,
    "schoolType": "Grade 11-12",
    "source": "Master Directory 2026",
    "isActive": true
  },
  {
    "schoolId": "SCH-holy-trinity-school-of-science-and-technol-410699",
    "schoolName": "Holy Trinity School of Science and Technology Inc.",
    "normalizedSchoolName": "HOLY TRINITY SCHOOL OF SCIENCE AND TECHNOLOGY INC",
    "municipality": "Laguna",
    "province": "Laguna",
    "latitude": 10.4826476,
    "longitude": 123.4193985,
    "schoolType": "Grade 11-12",
    "source": "Master Directory 2026",
    "isActive": true
  },
  {
    "schoolId": "SCH-hyong-yang-institute-of-technology-inc-410777",
    "schoolName": "Hyong Yang Institute of Technology Inc.,",
    "normalizedSchoolName": "HYONG YANG INSTITUTE OF TECHNOLOGY INC",
    "municipality": "Laguna",
    "province": "Laguna",
    "latitude": 13.9375631,
    "longitude": 121.6137416,
    "schoolType": "Grade 11-12",
    "source": "Master Directory 2026",
    "isActive": true
  },
  {
    "schoolId": "SCH-icct-colleges-foundation-inc-antipolo-camp-402021",
    "schoolName": "ICCT Colleges Foundation, Inc. - Antipolo Campus",
    "normalizedSchoolName": "ICCT COLLEGES FOUNDATION INC ANTIPOLO CAMPUS",
    "municipality": "Laguna",
    "province": "Laguna",
    "latitude": 14.5834522,
    "longitude": 121.1696549,
    "schoolType": "Grade 11-12",
    "source": "Master Directory 2026",
    "isActive": true
  },
  {
    "schoolId": "SCH-icct-colleges-foundation-inc-cogeo-campus-404883",
    "schoolName": "ICCT Colleges Foundation, Inc. - Cogeo Campus",
    "normalizedSchoolName": "ICCT COLLEGES FOUNDATION INC COGEO CAMPUS",
    "municipality": "Laguna",
    "province": "Laguna",
    "latitude": 14.625536,
    "longitude": 121.172537,
    "schoolType": "Grade 11-12",
    "source": "Master Directory 2026",
    "isActive": true
  },
  {
    "schoolId": "SCH-icct-colleges-foundation-inc-angono-campus-405304",
    "schoolName": "ICCT Colleges Foundation, Inc.-Angono Campus",
    "normalizedSchoolName": "ICCT COLLEGES FOUNDATION INCANGONO CAMPUS",
    "municipality": "Angono",
    "province": "Rizal",
    "latitude": 14.4796318,
    "longitude": 121.1879551,
    "schoolType": "Grade 11-12",
    "source": "Master Directory 2026",
    "isActive": true
  },
  {
    "schoolId": "SCH-icct-colleges-foundation-inc-binangonan-ca-402257",
    "schoolName": "ICCT Colleges Foundation, Inc.-Binangonan Campus",
    "normalizedSchoolName": "ICCT COLLEGES FOUNDATION INCBINANGONAN CAMPUS",
    "municipality": "Biñan",
    "province": "Rizal",
    "latitude": 14.4796318,
    "longitude": 121.1879551,
    "schoolType": "Grade 11-12",
    "source": "Master Directory 2026",
    "isActive": true
  },
  {
    "schoolId": "SCH-icct-colleges-foundation-inc-cainta-402252",
    "schoolName": "ICCT Colleges Foundation, Inc.-Cainta",
    "normalizedSchoolName": "ICCT COLLEGES FOUNDATION INCCAINTA",
    "municipality": "Cainta",
    "province": "Rizal",
    "latitude": 14.6177068,
    "longitude": 121.1026223,
    "schoolType": "Grade 11-12",
    "source": "Master Directory 2026",
    "isActive": true
  },
  {
    "schoolId": "SCH-icct-colleges-foundation-inc-san-mateo-cam-402258",
    "schoolName": "ICCT Colleges Foundation, Inc.-San Mateo Campus",
    "normalizedSchoolName": "ICCT COLLEGES FOUNDATION INCSAN MATEO CAMPUS",
    "municipality": "San Mateo",
    "province": "Rizal",
    "latitude": 14.6993561,
    "longitude": 121.1222861,
    "schoolType": "Grade 11-12",
    "source": "Master Directory 2026",
    "isActive": true
  },
  {
    "schoolId": "SCH-icct-colleges-foundation-inc-sumulong-camp-405319",
    "schoolName": "ICCT Colleges Foundation, Inc.-Sumulong Campus",
    "normalizedSchoolName": "ICCT COLLEGES FOUNDATION INCSUMULONG CAMPUS",
    "municipality": "Cainta",
    "province": "Rizal",
    "latitude": 14.610577,
    "longitude": 121.103726,
    "schoolType": "Grade 11-12",
    "source": "Master Directory 2026",
    "isActive": true
  },
  {
    "schoolId": "SCH-icct-colleges-foundation-inc-taytay-campus-402259",
    "schoolName": "ICCT Colleges Foundation, Inc.-Taytay Campus",
    "normalizedSchoolName": "ICCT COLLEGES FOUNDATION INCTAYTAY CAMPUS",
    "municipality": "Taytay",
    "province": "Rizal",
    "latitude": 14.557907,
    "longitude": 121.1369772,
    "schoolType": "Grade 11-12",
    "source": "Master Directory 2026",
    "isActive": true
  },
  {
    "schoolId": "SCH-ict-ed-institute-of-science-and-technology-411208",
    "schoolName": "ICT-ED Institute of Science and Technology",
    "normalizedSchoolName": "ICTED INSTITUTE OF SCIENCE AND TECHNOLOGY",
    "municipality": "City of Lipa",
    "province": "Batangas",
    "latitude": 13.941,
    "longitude": 121.164,
    "schoolType": "Grade 11-12",
    "source": "Master Directory 2026",
    "isActive": true
  },
  {
    "schoolId": "SCH-ict-ed-institute-of-science-and-technology-402189",
    "schoolName": "ICT-ED Institute of Science and Technology",
    "normalizedSchoolName": "ICTED INSTITUTE OF SCIENCE AND TECHNOLOGY",
    "municipality": "City of Lipa",
    "province": "Batangas",
    "latitude": 13.941,
    "longitude": 121.164,
    "schoolType": "Grade 11-12",
    "source": "Master Directory 2026",
    "isActive": true
  },
  {
    "schoolId": "SCH-ict-ed-institute-of-science-and-technology-405229",
    "schoolName": "ICT-ED Institute of Science and Technology",
    "normalizedSchoolName": "ICTED INSTITUTE OF SCIENCE AND TECHNOLOGY",
    "municipality": "City of Lipa",
    "province": "Batangas",
    "latitude": 13.941,
    "longitude": 121.164,
    "schoolType": "Grade 11-12",
    "source": "Master Directory 2026",
    "isActive": true
  },
  {
    "schoolId": "SCH-ieti-college-of-science-and-technology-409242",
    "schoolName": "IETI College of Science and Technology",
    "normalizedSchoolName": "IETI COLLEGE OF SCIENCE AND TECHNOLOGY",
    "municipality": "City of San Pedro",
    "province": "Laguna",
    "latitude": 14.359,
    "longitude": 121.047,
    "schoolType": "Grade 11-12",
    "source": "Master Directory 2026",
    "isActive": true
  },
  {
    "schoolId": "SCH-ikon-college-calamba-inc-402058",
    "schoolName": "IKON COLLEGE-Calamba, Inc.",
    "normalizedSchoolName": "IKON COLLEGECALAMBA INC",
    "municipality": "Calamba City",
    "province": "Laguna",
    "latitude": 14.203488,
    "longitude": 121.15646,
    "schoolType": "Grade 11-12",
    "source": "Master Directory 2026",
    "isActive": true
  },
  {
    "schoolId": "SCH-immaculate-college-of-cavite-inc-411445",
    "schoolName": "IMMACULATE COLLEGE OF CAVITE INC.",
    "normalizedSchoolName": "IMMACULATE COLLEGE OF CAVITE INC",
    "municipality": "Bacoor City",
    "province": "Laguna",
    "latitude": 14.4427824,
    "longitude": 120.9515499,
    "schoolType": "Grade 11-12",
    "source": "Master Directory 2026",
    "isActive": true
  },
  {
    "schoolId": "SCH-immaculate-heart-of-mary-school-407516",
    "schoolName": "Immaculate Heart of Mary School",
    "normalizedSchoolName": "IMMACULATE HEART OF MARY SCHOOL",
    "municipality": "City of San Pedro",
    "province": "Laguna",
    "latitude": 14.3511355,
    "longitude": 121.0548037,
    "schoolType": "Grade 11-12",
    "source": "Master Directory 2026",
    "isActive": true
  },
  {
    "schoolId": "SCH-informatics-college-cavite-411293",
    "schoolName": "Informatics College Cavite",
    "normalizedSchoolName": "INFORMATICS COLLEGE CAVITE",
    "municipality": "City of Imus",
    "province": "Cavite",
    "latitude": 14.406,
    "longitude": 120.941,
    "schoolType": "Grade 11-12",
    "source": "Master Directory 2026",
    "isActive": true
  },
  {
    "schoolId": "SCH-informatics-college-cavite-inc-fomerly-inf-405167",
    "schoolName": "Informatics College Cavite, Inc. (fomerly Informatics Computer Institute Cavite Center, Inc.)",
    "normalizedSchoolName": "INFORMATICS COLLEGE CAVITE INC FOMERLY INFORMATICS COMPUTER INSTITUTE CAVITE CENTER INC",
    "municipality": "Imus City",
    "province": "Cavite",
    "latitude": 14.3848007,
    "longitude": 120.9395255,
    "schoolType": "Grade 11-12",
    "source": "Master Directory 2026",
    "isActive": true
  },
  {
    "schoolId": "SCH-infotab-technology-institute-incorporated-409323",
    "schoolName": "INFOTAB TECHNOLOGY INSTITUTE, INCORPORATED",
    "normalizedSchoolName": "INFOTAB TECHNOLOGY INSTITUTE INCORPORATED",
    "municipality": "Laguna",
    "province": "Laguna",
    "latitude": 13.9481404,
    "longitude": 121.5859747,
    "schoolType": "Grade 11-12",
    "source": "Master Directory 2026",
    "isActive": true
  },
  {
    "schoolId": "SCH-infotech-college-of-arts-and-sciences-phil-410769",
    "schoolName": "INFOTECH COLLEGE OF ARTS & SCIENCES PHILIPPINES, INC.",
    "normalizedSchoolName": "INFOTECH COLLEGE OF ARTS SCIENCES PHILIPPINES INC",
    "municipality": "Laguna",
    "province": "Laguna",
    "latitude": 14.625765,
    "longitude": 121.1453471,
    "schoolType": "Grade 11-12",
    "source": "Master Directory 2026",
    "isActive": true
  },
  {
    "schoolId": "SCH-innovatech-skills-and-resource-institute-i-410745",
    "schoolName": "Innovatech Skills & Resource Institute Inc.",
    "normalizedSchoolName": "INNOVATECH SKILLS RESOURCE INSTITUTE INC",
    "municipality": "Laguna",
    "province": "Laguna",
    "latitude": 14.5908863,
    "longitude": 121.1772803,
    "schoolType": "Grade 11-12",
    "source": "Master Directory 2026",
    "isActive": true
  },
  {
    "schoolId": "SCH-inter-global-college-foundation-402209",
    "schoolName": "Inter-Global College Foundation",
    "normalizedSchoolName": "INTERGLOBAL COLLEGE FOUNDATION",
    "municipality": "City of Lucena",
    "province": "Quezon",
    "latitude": 13.941,
    "longitude": 121.623,
    "schoolType": "Grade 11-12",
    "source": "Master Directory 2026",
    "isActive": true
  },
  {
    "schoolId": "SCH-international-electronics-and-technical-in-404944",
    "schoolName": "International Electronics and Technical Institute (Biñan), Inc.",
    "normalizedSchoolName": "INTERNATIONAL ELECTRONICS AND TECHNICAL INSTITUTE BINAN INC",
    "municipality": "Biñan",
    "province": "Laguna",
    "latitude": 14.334145,
    "longitude": 121.081011,
    "schoolType": "Grade 11-12",
    "source": "Master Directory 2026",
    "isActive": true
  },
  {
    "schoolId": "SCH-international-electronics-and-technical-in-407312",
    "schoolName": "International Electronics and Technical Institute (Calamba), Inc.",
    "normalizedSchoolName": "INTERNATIONAL ELECTRONICS AND TECHNICAL INSTITUTE CALAMBA INC",
    "municipality": "Calamba City",
    "province": "Laguna",
    "latitude": 14.2140415,
    "longitude": 121.1711514,
    "schoolType": "Grade 11-12",
    "source": "Master Directory 2026",
    "isActive": true
  },
  {
    "schoolId": "SCH-international-electronics-and-technical-in-405187",
    "schoolName": "International Electronics and Technical Institute, Inc.-Imus",
    "normalizedSchoolName": "INTERNATIONAL ELECTRONICS AND TECHNICAL INSTITUTE INCIMUS",
    "municipality": "Imus City",
    "province": "Cavite",
    "latitude": 14.419762,
    "longitude": 120.941301,
    "schoolType": "Grade 11-12",
    "source": "Master Directory 2026",
    "isActive": true
  },
  {
    "schoolId": "SCH-international-peace-leadership-college-409010",
    "schoolName": "International Peace Leadership College",
    "normalizedSchoolName": "INTERNATIONAL PEACE LEADERSHIP COLLEGE",
    "municipality": "Tanay",
    "province": "Rizal",
    "latitude": 14.496,
    "longitude": 121.286,
    "schoolType": "Grade 11-12",
    "source": "Master Directory 2026",
    "isActive": true
  },
  {
    "schoolId": "SCH-international-school-for-hotel-and-restaur-405120",
    "schoolName": "International School for Hotel and Restaurant Management (ISHRM)-Dasmariñas Branch",
    "normalizedSchoolName": "INTERNATIONAL SCHOOL FOR HOTEL AND RESTAURANT MANAGEMENT ISHRMDASMARINAS BRANCH",
    "municipality": "Dasmariñas City",
    "province": "Cavite",
    "latitude": 14.4482129,
    "longitude": 120.9411833,
    "schoolType": "Grade 11-12",
    "source": "Master Directory 2026",
    "isActive": true
  },
  {
    "schoolId": "SCH-ishrm-school-system-bacoor-404930",
    "schoolName": "ISHRM School System-Bacoor",
    "normalizedSchoolName": "ISHRM SCHOOL SYSTEMBACOOR",
    "municipality": "City of Bacoor",
    "province": "Cavite",
    "latitude": 14.459,
    "longitude": 120.938,
    "schoolType": "Grade 11-12",
    "source": "Master Directory 2026",
    "isActive": true
  },
  {
    "schoolId": "SCH-islamic-studies-call-and-guidance-school-402354",
    "schoolName": "Islamic Studies, Call and Guidance School",
    "normalizedSchoolName": "ISLAMIC STUDIES CALL AND GUIDANCE SCHOOL",
    "municipality": "Laguna",
    "province": "Laguna",
    "latitude": 14.3571245,
    "longitude": 120.9374332,
    "schoolType": "Grade 11-12",
    "source": "Master Directory 2026",
    "isActive": true
  },
  {
    "schoolId": "SCH-itechnological-institute-inc-405031",
    "schoolName": "iTechnological Institute, Inc.",
    "normalizedSchoolName": "ITECHNOLOGICAL INSTITUTE INC",
    "municipality": "Laguna",
    "province": "Cavite",
    "latitude": 12.879721,
    "longitude": 121.774017,
    "schoolType": "Grade 11-12",
    "source": "Master Directory 2026",
    "isActive": true
  },
  {
    "schoolId": "SCH-jesus-is-lord-christian-school-407521",
    "schoolName": "Jesus Is Lord Christian School",
    "normalizedSchoolName": "JESUS IS LORD CHRISTIAN SCHOOL",
    "municipality": "Tanauan City",
    "province": "Batangas",
    "latitude": 14.0867993,
    "longitude": 121.148054,
    "schoolType": "Grade 11-12",
    "source": "Master Directory 2026",
    "isActive": true
  },
  {
    "schoolId": "SCH-jesus-reigns-christian-college-amadeo-foun-402076",
    "schoolName": "Jesus Reigns Christian College-Amadeo Foundation",
    "normalizedSchoolName": "JESUS REIGNS CHRISTIAN COLLEGEAMADEO FOUNDATION",
    "municipality": "Amadeo",
    "province": "Cavite",
    "latitude": 14.17,
    "longitude": 120.923,
    "schoolType": "Grade 11-12",
    "source": "Master Directory 2026",
    "isActive": true
  },
  {
    "schoolId": "SCH-kasiglahan-village-senior-high-school-342562",
    "schoolName": "Kasiglahan Village Senior High School",
    "normalizedSchoolName": "KASIGLAHAN VILLAGE SENIOR HIGH SCHOOL",
    "municipality": "Rodriguez",
    "province": "Rizal",
    "latitude": 14.7444204,
    "longitude": 121.144194,
    "schoolType": "Grade 11-12",
    "source": "Master Directory 2026",
    "isActive": true
  },
  {
    "schoolId": "SCH-kcd-technical-institute-405203",
    "schoolName": "KCD Technical Institute",
    "normalizedSchoolName": "KCD TECHNICAL INSTITUTE",
    "municipality": "Alaminos",
    "province": "Laguna",
    "latitude": 14.0634451,
    "longitude": 121.2442651,
    "schoolType": "Grade 11-12",
    "source": "Master Directory 2026",
    "isActive": true
  },
  {
    "schoolId": "SCH-labas-senior-high-school-stand-alone-342596",
    "schoolName": "LABAS SENIOR HIGH SCHOOL STAND ALONE",
    "normalizedSchoolName": "LABAS SENIOR HIGH SCHOOL STAND ALONE",
    "municipality": "Laguna",
    "province": "Laguna",
    "latitude": 14.3072272,
    "longitude": 121.1096112,
    "schoolType": "Grade 11-12",
    "source": "Master Directory 2026",
    "isActive": true
  },
  {
    "schoolId": "SCH-laguna-northwestern-college-corinthian-cen-407630",
    "schoolName": "Laguna Northwestern College-Corinthian Center",
    "normalizedSchoolName": "LAGUNA NORTHWESTERN COLLEGECORINTHIAN CENTER",
    "municipality": "Santa Rosa City",
    "province": "Laguna",
    "latitude": 14.2913782,
    "longitude": 121.0965092,
    "schoolType": "Grade 11-12",
    "source": "Master Directory 2026",
    "isActive": true
  },
  {
    "schoolId": "SCH-laguna-northwestern-college-slrmc-407517",
    "schoolName": "Laguna Northwestern College-SLRMC",
    "normalizedSchoolName": "LAGUNA NORTHWESTERN COLLEGESLRMC",
    "municipality": "Siniloan",
    "province": "Laguna",
    "latitude": 14.421,
    "longitude": 121.446,
    "schoolType": "Grade 11-12",
    "source": "Master Directory 2026",
    "isActive": true
  },
  {
    "schoolId": "SCH-laguna-science-and-technology-college-406022",
    "schoolName": "Laguna Science and Technology College",
    "normalizedSchoolName": "LAGUNA SCIENCE AND TECHNOLOGY COLLEGE",
    "municipality": "City of San Pedro",
    "province": "Laguna",
    "latitude": 14.359,
    "longitude": 121.047,
    "schoolType": "Grade 11-12",
    "source": "Master Directory 2026",
    "isActive": true
  },
  {
    "schoolId": "SCH-laguna-senior-high-school-342346",
    "schoolName": "LAGUNA SENIOR HIGH SCHOOL",
    "normalizedSchoolName": "LAGUNA SENIOR HIGH SCHOOL",
    "municipality": "Laguna",
    "province": "Laguna",
    "latitude": 14.2774484,
    "longitude": 121.4192258,
    "schoolType": "Grade 11-12",
    "source": "Master Directory 2026",
    "isActive": true
  },
  {
    "schoolId": "SCH-laguna-university-402163",
    "schoolName": "Laguna University",
    "normalizedSchoolName": "LAGUNA UNIVERSITY",
    "municipality": "Santa Cruz",
    "province": "Laguna",
    "latitude": 14.281,
    "longitude": 121.417,
    "schoolType": "Grade 11-12",
    "source": "Master Directory 2026",
    "isActive": true
  },
  {
    "schoolId": "SCH-laguna-university-600191",
    "schoolName": "Laguna University",
    "normalizedSchoolName": "LAGUNA UNIVERSITY",
    "municipality": "Santa Cruz",
    "province": "Laguna",
    "latitude": 14.281,
    "longitude": 121.417,
    "schoolType": "Grade 11-12",
    "source": "Master Directory 2026",
    "isActive": true
  },
  {
    "schoolId": "SCH-lemery-colleges-402032",
    "schoolName": "Lemery Colleges",
    "normalizedSchoolName": "LEMERY COLLEGES",
    "municipality": "Lemery",
    "province": "Batangas",
    "latitude": 13.92,
    "longitude": 120.882,
    "schoolType": "Grade 11-12",
    "source": "Master Directory 2026",
    "isActive": true
  },
  {
    "schoolId": "SCH-lemery-senior-high-school-305481",
    "schoolName": "Lemery Senior High School",
    "normalizedSchoolName": "LEMERY SENIOR HIGH SCHOOL",
    "municipality": "Lemery",
    "province": "Batangas",
    "latitude": 13.886141,
    "longitude": 120.9152789,
    "schoolType": "Grade 11-12",
    "source": "Master Directory 2026",
    "isActive": true
  },
  {
    "schoolId": "SCH-lian-senior-high-school-342206",
    "schoolName": "Lian Senior High School",
    "normalizedSchoolName": "LIAN SENIOR HIGH SCHOOL",
    "municipality": "Laguna",
    "province": "Batangas",
    "latitude": 14.025454,
    "longitude": 120.6671296,
    "schoolType": "Grade 11-12",
    "source": "Master Directory 2026",
    "isActive": true
  },
  {
    "schoolId": "SCH-liceo-de-sto-tomas-de-aquinas-inc-409999",
    "schoolName": "Liceo De Sto. Tomas De Aquinas Inc.",
    "normalizedSchoolName": "LICEO DE STO TOMAS DE AQUINAS INC",
    "municipality": "Laguna",
    "province": "Laguna",
    "latitude": 14.3093829,
    "longitude": 121.0634733,
    "schoolType": "Grade 11-12",
    "source": "Master Directory 2026",
    "isActive": true
  },
  {
    "schoolId": "SCH-liliw-senior-high-school-304846",
    "schoolName": "Liliw Senior High School",
    "normalizedSchoolName": "LILIW SENIOR HIGH SCHOOL",
    "municipality": "Liliw",
    "province": "Laguna",
    "latitude": 14.143119,
    "longitude": 121.438709,
    "schoolType": "Grade 11-12",
    "source": "Master Directory 2026",
    "isActive": true
  },
  {
    "schoolId": "SCH-lilyrose-educational-foundation-inc-402344",
    "schoolName": "Lilyrose Educational Foundation, Inc.",
    "normalizedSchoolName": "LILYROSE EDUCATIONAL FOUNDATION INC",
    "municipality": "Tanauan City",
    "province": "Batangas",
    "latitude": 14.0854715,
    "longitude": 121.1522367,
    "schoolType": "Grade 11-12",
    "source": "Master Directory 2026",
    "isActive": true
  },
  {
    "schoolId": "SCH-lipa-city-senior-high-school-303491",
    "schoolName": "Lipa City Senior High School",
    "normalizedSchoolName": "LIPA CITY SENIOR HIGH SCHOOL",
    "municipality": "Laguna",
    "province": "Laguna",
    "latitude": 13.9411083,
    "longitude": 121.1559415,
    "schoolType": "Grade 11-12",
    "source": "Master Directory 2026",
    "isActive": true
  },
  {
    "schoolId": "SCH-lobo-senior-high-school-342212",
    "schoolName": "Lobo Senior High School",
    "normalizedSchoolName": "LOBO SENIOR HIGH SCHOOL",
    "municipality": "Laguna",
    "province": "Batangas",
    "latitude": 13.6496871,
    "longitude": 121.2087212,
    "schoolType": "Grade 11-12",
    "source": "Master Directory 2026",
    "isActive": true
  },
  {
    "schoolId": "SCH-lord-immanuel-institute-foundation-inc-402035",
    "schoolName": "Lord Immanuel Institute Foundation, Inc.",
    "normalizedSchoolName": "LORD IMMANUEL INSTITUTE FOUNDATION INC",
    "municipality": "Laguna",
    "province": "Batangas",
    "latitude": 13.6453368,
    "longitude": 121.2077047,
    "schoolType": "Grade 11-12",
    "source": "Master Directory 2026",
    "isActive": true
  },
  {
    "schoolId": "SCH-los-banos-bayog-senior-high-school-stand-a-342352",
    "schoolName": "Los Baños - Bayog Senior High School Stand Alone",
    "normalizedSchoolName": "LOS BANOS BAYOG SENIOR HIGH SCHOOL STAND ALONE",
    "municipality": "Los Baños",
    "province": "Laguna",
    "latitude": 14.1914677,
    "longitude": 121.2440936,
    "schoolType": "Grade 11-12",
    "source": "Master Directory 2026",
    "isActive": true
  },
  {
    "schoolId": "SCH-los-banos-bambang-senior-high-school-stand-342350",
    "schoolName": "Los Baños Bambang Senior High School Stand Alone",
    "normalizedSchoolName": "LOS BANOS BAMBANG SENIOR HIGH SCHOOL STAND ALONE",
    "municipality": "Laguna",
    "province": "Laguna",
    "latitude": 14.1776112,
    "longitude": 121.2184369,
    "schoolType": "Grade 11-12",
    "source": "Master Directory 2026",
    "isActive": true
  },
  {
    "schoolId": "SCH-los-banos-lalakay-senior-high-school-stand-342351",
    "schoolName": "Los Baños Lalakay Senior High School Stand Alone",
    "normalizedSchoolName": "LOS BANOS LALAKAY SENIOR HIGH SCHOOL STAND ALONE",
    "municipality": "Los Baños",
    "province": "Laguna",
    "latitude": 14.1718306,
    "longitude": 121.2146703,
    "schoolType": "Grade 11-12",
    "source": "Master Directory 2026",
    "isActive": true
  },
  {
    "schoolId": "SCH-los-banos-senior-high-school-shs-stand-alo-342349",
    "schoolName": "Los Baños Senior High School (SHS) Stand Alone",
    "normalizedSchoolName": "LOS BANOS SENIOR HIGH SCHOOL SHS STAND ALONE",
    "municipality": "Los Baños",
    "province": "Laguna",
    "latitude": 14.1795929,
    "longitude": 121.2463792,
    "schoolType": "Grade 11-12",
    "source": "Master Directory 2026",
    "isActive": true
  },
  {
    "schoolId": "SCH-luis-c-obial-senior-high-school-342357",
    "schoolName": "LUIS C. OBIAL SENIOR HIGH SCHOOL",
    "normalizedSchoolName": "LUIS C OBIAL SENIOR HIGH SCHOOL",
    "municipality": "Paete",
    "province": "Laguna",
    "latitude": 14.3655936,
    "longitude": 121.4799873,
    "schoolType": "Grade 11-12",
    "source": "Master Directory 2026",
    "isActive": true
  },
  {
    "schoolId": "SCH-luis-y-ferrer-jr-senior-high-school-342285",
    "schoolName": "Luis Y. Ferrer Jr. Senior High School",
    "normalizedSchoolName": "LUIS Y FERRER JR SENIOR HIGH SCHOOL",
    "municipality": "Laguna",
    "province": "Laguna",
    "latitude": 14.3387608,
    "longitude": 120.8821493,
    "schoolType": "Grade 11-12",
    "source": "Master Directory 2026",
    "isActive": true
  },
  {
    "schoolId": "SCH-luis-y-ferrer-jr-south-senior-high-school-306432",
    "schoolName": "Luis Y. Ferrer Jr. South Senior High School",
    "normalizedSchoolName": "LUIS Y FERRER JR SOUTH SENIOR HIGH SCHOOL",
    "municipality": "General Trias",
    "province": "Laguna",
    "latitude": 14.276916,
    "longitude": 120.9163779,
    "schoolType": "Grade 11-12",
    "source": "Master Directory 2026",
    "isActive": true
  },
  {
    "schoolId": "SCH-lumban-senior-high-school-302159",
    "schoolName": "Lumban Senior High School",
    "normalizedSchoolName": "LUMBAN SENIOR HIGH SCHOOL",
    "municipality": "Laguna",
    "province": "Laguna",
    "latitude": 14.3045764,
    "longitude": 121.4590562,
    "schoolType": "Grade 11-12",
    "source": "Master Directory 2026",
    "isActive": true
  },
  {
    "schoolId": "SCH-luzonian-center-of-excellence-for-science--408877",
    "schoolName": "Luzonian Center of Excellence for Science and Technology Inc.",
    "normalizedSchoolName": "LUZONIAN CENTER OF EXCELLENCE FOR SCIENCE AND TECHNOLOGY INC",
    "municipality": "Laguna",
    "province": "Laguna",
    "latitude": 15.9514259,
    "longitude": 120.9769786,
    "schoolType": "Grade 11-12",
    "source": "Master Directory 2026",
    "isActive": true
  },
  {
    "schoolId": "SCH-lyceum-de-san-pablo-1407866",
    "schoolName": "Lyceum de San Pablo",
    "normalizedSchoolName": "LYCEUM DE SAN PABLO",
    "municipality": "City of San Pablo",
    "province": "Laguna",
    "latitude": 14.068,
    "longitude": 121.325,
    "schoolType": "Grade 11-12",
    "source": "Master Directory 2026",
    "isActive": true
  },
  {
    "schoolId": "SCH-lyceum-de-sta-rosa-laguna-education-inc-411427",
    "schoolName": "LYCEUM DE STA ROSA LAGUNA EDUCATION INC.",
    "normalizedSchoolName": "LYCEUM DE STA ROSA LAGUNA EDUCATION INC",
    "municipality": "Santa Rosa City",
    "province": "Laguna",
    "latitude": 14.296364,
    "longitude": 121.1197676,
    "schoolType": "Grade 11-12",
    "source": "Master Directory 2026",
    "isActive": true
  },
  {
    "schoolId": "SCH-lyceum-of-st-dominic-inc-411393",
    "schoolName": "LYCEUM OF ST DOMINIC INC.",
    "normalizedSchoolName": "LYCEUM OF ST DOMINIC INC",
    "municipality": "Laguna",
    "province": "Laguna",
    "latitude": 14.1815462,
    "longitude": 122.3914214,
    "schoolType": "Grade 11-12",
    "source": "Master Directory 2026",
    "isActive": true
  },
  {
    "schoolId": "SCH-lyceum-of-tingloy-de-san-roque-inc-410913",
    "schoolName": "LYCEUM OF TINGLOY DE SAN ROQUE INC.",
    "normalizedSchoolName": "LYCEUM OF TINGLOY DE SAN ROQUE INC",
    "municipality": "Laguna",
    "province": "Laguna",
    "latitude": 13.6348081,
    "longitude": 120.8986943,
    "schoolType": "Grade 11-12",
    "source": "Master Directory 2026",
    "isActive": true
  },
  {
    "schoolId": "SCH-lyceum-technological-college-410989",
    "schoolName": "Lyceum Technological College",
    "normalizedSchoolName": "LYCEUM TECHNOLOGICAL COLLEGE",
    "municipality": "Tiaong",
    "province": "Quezon",
    "latitude": 13.963,
    "longitude": 121.322,
    "schoolType": "Grade 11-12",
    "source": "Master Directory 2026",
    "isActive": true
  },
  {
    "schoolId": "SCH-magallanes-cavite-west-point-college-inc-410111",
    "schoolName": "Magallanes - Cavite West Point College Inc.",
    "normalizedSchoolName": "MAGALLANES CAVITE WEST POINT COLLEGE INC",
    "municipality": "Laguna",
    "province": "Laguna",
    "latitude": 14.1554521,
    "longitude": 120.7704835,
    "schoolType": "Grade 11-12",
    "source": "Master Directory 2026",
    "isActive": true
  },
  {
    "schoolId": "SCH-mahabang-dahilig-senior-high-school-stand--305621",
    "schoolName": "Mahabang Dahilig Senior High School - Stand Alone",
    "normalizedSchoolName": "MAHABANG DAHILIG SENIOR HIGH SCHOOL STAND ALONE",
    "municipality": "Laguna",
    "province": "Laguna",
    "latitude": 13.7105367,
    "longitude": 121.0928803,
    "schoolType": "Grade 11-12",
    "source": "Master Directory 2026",
    "isActive": true
  },
  {
    "schoolId": "SCH-malayan-colleges-of-laguna-402166",
    "schoolName": "Malayan Colleges of Laguna",
    "normalizedSchoolName": "MALAYAN COLLEGES OF LAGUNA",
    "municipality": "City of Cabuyao",
    "province": "Laguna",
    "latitude": 14.278,
    "longitude": 121.125,
    "schoolType": "Grade 11-12",
    "source": "Master Directory 2026",
    "isActive": true
  },